{"type":"Topology","objects":{"facility":{"type":"GeometryCollection","crs":{"type":"name","properties":{"name":"urn:ogc:def:crs:OGC:1.3:CRS84"}},"geometries":[{"type":"Point","properties":{"ID":"100","NAME":"NS CONNECTING LINE BULK TRANSFER TERMINAL-WAHSINGT","TYPE":"RAIL","MODE_TYPE":"RAIL & TRUCK","CITY":"WASHINGTON PARK","STATE":"IL","FIPS":"17","ZIP":"62204","ZIP2":null,"PARCEL":0,"LATITUDE":38.64052,"LONGITUDE":-90.09296,"GEOSOURCE":"GDT 2000 STREETS","CREATEDATE":"2003/04/09","CREATOR":"INDUS","MODDATE":null,"ASSOC":"BNSF, NS, TRRA"},"coordinates":[7576,4356]},{"type":"Point","properties":{"ID":"1000","NAME":"PROLINE-MONSON-MA","TYPE":"RAIL","MODE_TYPE":"RAIL & TRUCK","CITY":"MONSON","STATE":"MA","FIPS":"25","ZIP":"01057","ZIP2":null,"PARCEL":0,"LATITUDE":42.1068,"LONGITUDE":-72.31265,"GEOSOURCE":"GDT 2000 STREETS","CREATEDATE":"2003/04/09","CREATOR":"INDUS","MODDATE":null,"ASSOC":"CN"},"coordinates":[9364,5104]},{"type":"Point","properties":{"ID":"1001","NAME":"MAPLE LEAF DISTRIBUTION SERVICES INC-BONDSVILLE-MA","TYPE":"RAIL","MODE_TYPE":"RAIL & TRUCK","CITY":"BONDSVILLE","STATE":"MA","FIPS":"25","ZIP":"01009","ZIP2":null,"PARCEL":0,"LATITUDE":42.34282,"LONGITUDE":-71.05485,"GEOSOURCE":"GDT 2000 STREETS","CREATEDATE":"2003/04/09","CREATOR":"INDUS","MODDATE":null,"ASSOC":"CN"},"coordinates":[9491,5155]},{"type":"Point","properties":{"ID":"1003","NAME":"LARSEN INTERMODAL, INC.-METAIRIE-LA","TYPE":"RAIL","MODE_TYPE":"RAIL & TRUCK","CITY":"METAIRIE","STATE":"LA","FIPS":"22","ZIP":"70001","ZIP2":null,"PARCEL":0,"LATITUDE":29.97826,"LONGITUDE":-90.20471,"GEOSOURCE":"GDT 2000 STREETS","CREATEDATE":"2003/04/09","CREATOR":"INDUS","MODDATE":null,"ASSOC":"CN"},"coordinates":[7565,2488]},{"type":"Point","properties":{"ID":"1004","NAME":"INNOVATIVE WASTE SYSTEMS, INC-BATON ROUGE-LA","TYPE":"RAIL","MODE_TYPE":"RAIL & TRUCK","CITY":"BATON ROUGE","STATE":"LA","FIPS":"22","ZIP":"70807","ZIP2":null,"PARCEL":0,"LATITUDE":30.5545,"LONGITUDE":-91.1991,"GEOSOURCE":"GDT 2000 STREETS","CREATEDATE":"2003/04/09","CREATOR":"INDUS","MODDATE":null,"ASSOC":"CN"},"coordinates":[7465,2613]},{"type":"Point","properties":{"ID":"1005","NAME":"ACME TRANSFER-BATON ROUGE-LA","TYPE":"RAIL","MODE_TYPE":"RAIL & TRUCK","CITY":"BATON ROUGE","STATE":"LA","FIPS":"22","ZIP":null,"ZIP2":null,"PARCEL":0,"LATITUDE":30.5545,"LONGITUDE":-91.1991,"GEOSOURCE":"GDT 2000 STREETS","CREATEDATE":"2003/04/09","CREATOR":"INDUS","MODDATE":null,"ASSOC":"CN"},"coordinates":[7465,2613]},{"type":"Point","properties":{"ID":"1007","NAME":"METRO PARK WAREHOUSING, INC.-KANSAS CITY-KS","TYPE":"RAIL","MODE_TYPE":"RAIL & TRUCK","CITY":"KANSAS CITY","STATE":"KS","FIPS":"20","ZIP":"66106","ZIP2":null,"PARCEL":0,"LATITUDE":39.08035,"LONGITUDE":-94.6941,"GEOSOURCE":"GDT 2000 STREETS","CREATEDATE":"2003/04/09","CREATOR":"INDUS","MODDATE":null,"ASSOC":"CN"},"coordinates":[7114,4451]},{"type":"Point","properties":{"ID":"1008","NAME":"VOSE INDUSTRIAL ENTERPRISES-WATERLOO-IA","TYPE":"RAIL","MODE_TYPE":"RAIL & TRUCK","CITY":"WATERLOO","STATE":"IA","FIPS":"19","ZIP":"50703","ZIP2":null,"PARCEL":0,"LATITUDE":42.54198,"LONGITUDE":-92.40664,"GEOSOURCE":"GDT 2000 STREETS","CREATEDATE":"2003/04/09","CREATOR":"INDUS","MODDATE":null,"ASSOC":"CN"},"coordinates":[7344,5198]},{"type":"Point","properties":{"ID":"1009","NAME":"POST-SCRIPT WAREHOUSE, INC.-NORWICH-CT","TYPE":"RAIL","MODE_TYPE":"RAIL & TRUCK","CITY":"NORWICH","STATE":"CT","FIPS":"09","ZIP":"06360","ZIP2":null,"PARCEL":0,"LATITUDE":41.52611,"LONGITUDE":-72.08793,"GEOSOURCE":"GDT 2000 STREETS","CREATEDATE":"2003/04/09","CREATOR":"INDUS","MODDATE":null,"ASSOC":"CN"},"coordinates":[9387,4979]},{"type":"Point","properties":{"ID":"101","NAME":"OWENSBORO RIVERPORT","TYPE":"PORT","MODE_TYPE":"TRUCK - PORT - RAIL","CITY":"OWENSBORO","STATE":"KY","FIPS":"21","ZIP":"42301","ZIP2":"9267","PARCEL":0,"LATITUDE":37.79572,"LONGITUDE":-87.14425,"GEOSOURCE":"GDT 2000 STREETS","CREATEDATE":"2003/04/09","CREATOR":"INDUS","MODDATE":null,"ASSOC":null},"coordinates":[7873,4174]},{"type":"Point","properties":{"ID":"1010","NAME":"DIXIE PULP AND PAPER-TUSCALOOSA-AL","TYPE":"RAIL","MODE_TYPE":"RAIL & TRUCK","CITY":"TUSCALOOSA","STATE":"AL","FIPS":"01","ZIP":"35401","ZIP2":null,"PARCEL":0,"LATITUDE":33.21192,"LONGITUDE":-87.6291,"GEOSOURCE":"GDT 2000 STREETS","CREATEDATE":"2003/04/09","CREATOR":"INDUS","MODDATE":null,"ASSOC":"CN"},"coordinates":[7824,3186]},{"type":"Point","properties":{"ID":"1011","NAME":"GLOBAL MATERIALS SERVICES-MEMPHIS-TN","TYPE":"RAIL","MODE_TYPE":"RAIL & TRUCK","CITY":"MEMPHIS","STATE":"TN","FIPS":"47","ZIP":null,"ZIP2":null,"PARCEL":0,"LATITUDE":35.09872,"LONGITUDE":-90.10944,"GEOSOURCE":"GDT 2000 STREETS","CREATEDATE":"2003/04/09","CREATOR":"INDUS","MODDATE":null,"ASSOC":"CN"},"coordinates":[7575,3593]},{"type":"Point","properties":{"ID":"1012","NAME":"COMMERCIAL TRANSLOAD OF MINNESOTA-FRIDLEY-MN","TYPE":"RAIL","MODE_TYPE":"RAIL & TRUCK","CITY":"FRIDLEY","STATE":"MN","FIPS":"27","ZIP":"55432","ZIP2":null,"PARCEL":0,"LATITUDE":45.09705,"LONGITUDE":-93.26334,"GEOSOURCE":"GDT 2000 STREETS","CREATEDATE":"2003/04/09","CREATOR":"INDUS","MODDATE":null,"ASSOC":"CN"},"coordinates":[7258,5749]},{"type":"Point","properties":{"ID":"1013","NAME":"WHITING DISTRIBUTION-RIVERVIEW (DETROIT)-MI","TYPE":"RAIL","MODE_TYPE":"RAIL & TRUCK","CITY":"RIVERVIEW (DETROIT)","STATE":"MI","FIPS":"26","ZIP":"48192","ZIP2":null,"PARCEL":0,"LATITUDE":42.18419,"LONGITUDE":-83.23275,"GEOSOURCE":"GDT 2000 STREETS","CREATEDATE":"2003/04/09","CREATOR":"INDUS","MODDATE":null,"ASSOC":"CN"},"coordinates":[8266,5121]},{"type":"Point","properties":{"ID":"1014","NAME":"SOUTH TEC DEVELOPMENT CORP-KANKAKEE-IL","TYPE":"RAIL","MODE_TYPE":"RAIL & TRUCK","CITY":"KANKAKEE","STATE":"IL","FIPS":"17","ZIP":"60901","ZIP2":null,"PARCEL":0,"LATITUDE":41.07313,"LONGITUDE":-87.86918,"GEOSOURCE":"GDT 2000 STREETS","CREATEDATE":"2003/04/09","CREATOR":"INDUS","MODDATE":null,"ASSOC":"CN"},"coordinates":[7800,4881]},{"type":"Point","properties":{"ID":"1015","NAME":"STELLAR-CHICAGO-IL","TYPE":"RAIL","MODE_TYPE":"RAIL & TRUCK","CITY":"CHICAGO","STATE":"IL","FIPS":"17","ZIP":"60632","ZIP2":null,"PARCEL":0,"LATITUDE":41.80241,"LONGITUDE":-87.70891,"GEOSOURCE":"GDT 2000 STREETS","CREATEDATE":"2003/04/09","CREATOR":"INDUS","MODDATE":null,"ASSOC":"CN"},"coordinates":[7816,5038]},{"type":"Point","properties":{"ID":"1016","NAME":"TRANSLOAD SERVICES, LLC-HARVEY-IL","TYPE":"RAIL","MODE_TYPE":"RAIL & TRUCK","CITY":"HARVEY","STATE":"IL","FIPS":"17","ZIP":null,"ZIP2":null,"PARCEL":0,"LATITUDE":41.62501,"LONGITUDE":-87.66096,"GEOSOURCE":"GDT 2000 STREETS","CREATEDATE":"2003/04/09","CREATOR":"INDUS","MODDATE":null,"ASSOC":"CN"},"coordinates":[7821,5000]},{"type":"Point","properties":{"ID":"1018","NAME":"AUTOMATED PRODUCTS-AUTOMATED PRODUCTSMARSHFIELD-WI","TYPE":"RAIL","MODE_TYPE":"RAIL & TRUCK","CITY":"MARSHFIELD","STATE":"WI","FIPS":"55","ZIP":"54449","ZIP2":"4607","PARCEL":0,"LATITUDE":44.65479,"LONGITUDE":-90.15304,"GEOSOURCE":"GDT 2000 STREETS","CREATEDATE":"2003/04/09","CREATOR":"INDUS","MODDATE":null,"ASSOC":"CN"},"coordinates":[7570,5653]},{"type":"Point","properties":{"ID":"1020","NAME":"PORT ARTHUR-TX","TYPE":"RAIL","MODE_TYPE":"RAIL & TRUCK","CITY":"PORT ARTHUR","STATE":"TX","FIPS":"48","ZIP":"77641","ZIP2":null,"PARCEL":0,"LATITUDE":29.86694,"LONGITUDE":-93.93597,"GEOSOURCE":"GDT 2000 STREETS","CREATEDATE":"2003/04/09","CREATOR":"INDUS","MODDATE":null,"ASSOC":"CN"},"coordinates":[7190,2464]},{"type":"Point","properties":{"ID":"1021","NAME":"LMS INTERNATIONAL-LAREDO-TX","TYPE":"RAIL","MODE_TYPE":"RAIL & TRUCK","CITY":"LAREDO","STATE":"TX","FIPS":"48","ZIP":"78044","ZIP2":null,"PARCEL":0,"LATITUDE":27.5626,"LONGITUDE":-99.50712,"GEOSOURCE":"GDT 2000 STREETS","CREATEDATE":"2003/04/09","CREATOR":"INDUS","MODDATE":null,"ASSOC":"CN"},"coordinates":[6630,1967]},{"type":"Point","properties":{"ID":"1022","NAME":"DALLAS WAREHOUSE AND RELOAD, LLC-DALLAS-TX","TYPE":"RAIL","MODE_TYPE":"RAIL & TRUCK","CITY":"DALLAS","STATE":"TX","FIPS":"48","ZIP":"75218","ZIP2":null,"PARCEL":0,"LATITUDE":32.86191,"LONGITUDE":-96.67223,"GEOSOURCE":"GDT 2000 STREETS","CREATEDATE":"2003/04/09","CREATOR":"INDUS","MODDATE":null,"ASSOC":"CN"},"coordinates":[6915,3110]},{"type":"Point","properties":{"ID":"1023","NAME":"SKIP'S INDUSTRIAL SALVAGE-CORPUS CHRISTI-TX","TYPE":"RAIL","MODE_TYPE":"RAIL & TRUCK","CITY":"CORPUS CHRISTI","STATE":"TX","FIPS":"48","ZIP":"78405","ZIP2":null,"PARCEL":0,"LATITUDE":27.78589,"LONGITUDE":-97.45309,"GEOSOURCE":"GDT 2000 STREETS","CREATEDATE":"2003/04/09","CREATOR":"INDUS","MODDATE":null,"ASSOC":"CN"},"coordinates":[6836,2016]},{"type":"Point","properties":{"ID":"1024","NAME":"GST (GREATER SOUTH TRANSPORTATION)MEMPHIS-TN","TYPE":"RAIL","MODE_TYPE":"RAIL & TRUCK","CITY":"MEMPHIS","STATE":"TN","FIPS":"47","ZIP":"38109","ZIP2":"2408","PARCEL":0,"LATITUDE":35.08594,"LONGITUDE":-90.07698,"GEOSOURCE":"GDT 2000 STREETS","CREATEDATE":"2003/04/09","CREATOR":"INDUS","MODDATE":null,"ASSOC":"CN"},"coordinates":[7578,3590]},{"type":"Point","properties":{"ID":"1026","NAME":"TIER ONE DISTRIBUTION-SPRINGFIEL-OK","TYPE":"RAIL","MODE_TYPE":"RAIL & TRUCK","CITY":"SPRINGFIELD","STATE":"OH","FIPS":"39","ZIP":"45501","ZIP2":null,"PARCEL":0,"LATITUDE":39.9132,"LONGITUDE":-83.7792,"GEOSOURCE":"GDT 2000 STREETS","CREATEDATE":"2003/04/09","CREATOR":"INDUS","MODDATE":null,"ASSOC":"CN"},"coordinates":[8211,4631]},{"type":"Point","properties":{"ID":"1027","NAME":"WAREHOUSE ASSOCIATES-LIMA-OH","TYPE":"RAIL","MODE_TYPE":"RAIL & TRUCK","CITY":"LIMA","STATE":"OH","FIPS":"39","ZIP":"45805","ZIP2":null,"PARCEL":0,"LATITUDE":40.76084,"LONGITUDE":-84.08952,"GEOSOURCE":"GDT 2000 STREETS","CREATEDATE":"2003/04/09","CREATOR":"INDUS","MODDATE":null,"ASSOC":"CN"},"coordinates":[8180,4814]},{"type":"Point","properties":{"ID":"10276","NAME":"Emery Forwarding-Birmingham-AL","TYPE":"AIR","MODE_TYPE":"AIR & TRUCK","CITY":"Birmingham","STATE":"AL","FIPS":"01","ZIP":"35210","ZIP2":null,"PARCEL":0,"LATITUDE":33.54886,"LONGITUDE":-86.66292,"GEOSOURCE":"GDT 2001 STREETS","CREATEDATE":"2003/04/09","CREATOR":"INDUS","MODDATE":null,"ASSOC":null},"coordinates":[7921,3258]},{"type":"Point","properties":{"ID":"10277","NAME":"Emery Forwarding-Dothan-AL","TYPE":"AIR","MODE_TYPE":"AIR & TRUCK","CITY":"Dothan","STATE":"AL","FIPS":"01","ZIP":"35210","ZIP2":null,"PARCEL":0,"LATITUDE":33.54886,"LONGITUDE":-86.66292,"GEOSOURCE":"GDT 2001 STREETS","CREATEDATE":"2003/04/09","CREATOR":"INDUS","MODDATE":null,"ASSOC":null},"coordinates":[7921,3258]},{"type":"Point","properties":{"ID":"10278","NAME":"Emery Forwarding-Huntsville-AL","TYPE":"AIR","MODE_TYPE":"AIR & TRUCK","CITY":"Huntsville","STATE":"AL","FIPS":"01","ZIP":"35824","ZIP2":null,"PARCEL":0,"LATITUDE":34.64642,"LONGITUDE":-86.75939,"GEOSOURCE":"GDT 2001 STREETS","CREATEDATE":"2003/04/09","CREATOR":"INDUS","MODDATE":null,"ASSOC":null},"coordinates":[7912,3495]},{"type":"Point","properties":{"ID":"1028","NAME":"CN SOUTH BUFFALO DISTRIBUTION CENTER-LACKAWANA-NY","TYPE":"RAIL","MODE_TYPE":"RAIL & TRUCK","CITY":"LACKAWANA","STATE":"NY","FIPS":"36","ZIP":"14218","ZIP2":null,"PARCEL":0,"LATITUDE":42.82375,"LONGITUDE":-78.85011,"GEOSOURCE":"GDT 2000 STREETS","CREATEDATE":"2003/04/09","CREATOR":"INDUS","MODDATE":null,"ASSOC":"CN"},"coordinates":[8707,5258]},{"type":"Point","properties":{"ID":"10281","NAME":"Emery Forwarding-Montgomery-AL","TYPE":"AIR","MODE_TYPE":"AIR & TRUCK","CITY":"Birmingham","STATE":"AL","FIPS":"01","ZIP":"35210","ZIP2":null,"PARCEL":0,"LATITUDE":33.54886,"LONGITUDE":-86.66292,"GEOSOURCE":"GDT 2001 STREETS","CREATEDATE":"2003/04/09","CREATOR":"INDUS","MODDATE":null,"ASSOC":null},"coordinates":[7921,3258]},{"type":"Point","properties":{"ID":"10282","NAME":"Emery Forwarding-Anchorage-AK","TYPE":"AIR","MODE_TYPE":"AIR & TRUCK","CITY":"Anchorage","STATE":"AK","FIPS":"02","ZIP":"99502","ZIP2":null,"PARCEL":0,"LATITUDE":61.17536,"LONGITUDE":-149.96812,"GEOSOURCE":"GDT 2001 STREETS","CREATEDATE":"2003/04/09","CREATOR":"INDUS","MODDATE":null,"ASSOC":null},"coordinates":[1555,9216]},{"type":"Point","properties":{"ID":"10283","NAME":"Emery Forwarding-Fairbanks-AK","TYPE":"AIR","MODE_TYPE":"AIR & TRUCK","CITY":"Fairbanks","STATE":"AK","FIPS":"02","ZIP":"99502","ZIP2":null,"PARCEL":0,"LATITUDE":61.17536,"LONGITUDE":-149.96812,"GEOSOURCE":"GDT 2001 STREETS","CREATEDATE":"2003/04/09","CREATOR":"INDUS","MODDATE":null,"ASSOC":null},"coordinates":[1555,9216]},{"type":"Point","properties":{"ID":"10284","NAME":"Emery Customs Brokers-Tucson-AZ","TYPE":"AIR","MODE_TYPE":"AIR & TRUCK","CITY":"Tucson","STATE":"AZ","FIPS":"04","ZIP":"85706","ZIP2":null,"PARCEL":0,"LATITUDE":32.11578,"LONGITUDE":-110.92947,"GEOSOURCE":"GDT 2001 STREETS","CREATEDATE":"2003/04/09","CREATOR":"INDUS","MODDATE":null,"ASSOC":null},"coordinates":[5481,2949]},{"type":"Point","properties":{"ID":"10285","NAME":"Emery Forwarding-Phoenix-AZ","TYPE":"AIR","MODE_TYPE":"AIR & TRUCK","CITY":"Phoenix","STATE":"AZ","FIPS":"04","ZIP":"85040","ZIP2":null,"PARCEL":0,"LATITUDE":33.407,"LONGITUDE":-112.01821,"GEOSOURCE":"GDT 2001 STREETS","CREATEDATE":"2003/04/09","CREATOR":"INDUS","MODDATE":null,"ASSOC":null},"coordinates":[5372,3228]},{"type":"Point","properties":{"ID":"10286","NAME":"Emery Forwarding-Tucson-AZ","TYPE":"AIR","MODE_TYPE":"AIR & TRUCK","CITY":"Tucson","STATE":"AZ","FIPS":"04","ZIP":"85706","ZIP2":null,"PARCEL":0,"LATITUDE":32.11578,"LONGITUDE":-110.92947,"GEOSOURCE":"GDT 2001 STREETS","CREATEDATE":"2003/04/09","CREATOR":"INDUS","MODDATE":null,"ASSOC":null},"coordinates":[5481,2949]},{"type":"Point","properties":{"ID":"10288","NAME":"Emery Forwarding-Little Rock-AR","TYPE":"AIR","MODE_TYPE":"AIR & TRUCK","CITY":"Little Rock","STATE":"AR","FIPS":"05","ZIP":"72202","ZIP2":null,"PARCEL":0,"LATITUDE":34.73813,"LONGITUDE":-92.2198,"GEOSOURCE":"GDT 2001 STREETS","CREATEDATE":"2003/04/09","CREATOR":"INDUS","MODDATE":null,"ASSOC":null},"coordinates":[7363,3515]},{"type":"Point","properties":{"ID":"1029","NAME":"RELOAD, INC.-ST. LOUIS-MO","TYPE":"RAIL","MODE_TYPE":"RAIL & TRUCK","CITY":"ST. LOUIS","STATE":"MO","FIPS":"29","ZIP":"63110","ZIP2":"2533","PARCEL":0,"LATITUDE":38.62461,"LONGITUDE":-90.24295,"GEOSOURCE":"GDT 2000 STREETS","CREATEDATE":"2003/04/09","CREATOR":"INDUS","MODDATE":null,"ASSOC":"CN"},"coordinates":[7561,4353]},{"type":"Point","properties":{"ID":"10290","NAME":"Emery Forwarding-Fresno-Ca","TYPE":"AIR","MODE_TYPE":"AIR & TRUCK","CITY":"Mather","STATE":"CA","FIPS":"06","ZIP":"95655","ZIP2":null,"PARCEL":0,"LATITUDE":38.55734,"LONGITUDE":-121.3107,"GEOSOURCE":"GDT 2001 STREETS","CREATEDATE":"2003/04/09","CREATOR":"INDUS","MODDATE":null,"ASSOC":null},"coordinates":[4437,4338]},{"type":"Point","properties":{"ID":"10291","NAME":"Emery Forwarding-Hayward-CA","TYPE":"AIR","MODE_TYPE":"AIR & TRUCK","CITY":"Hayward","STATE":"CA","FIPS":"06","ZIP":"94541","ZIP2":null,"PARCEL":0,"LATITUDE":37.67704,"LONGITUDE":-122.08299,"GEOSOURCE":"GDT 2001 STREETS","CREATEDATE":"2003/04/09","CREATOR":"INDUS","MODDATE":null,"ASSOC":null},"coordinates":[4360,4149]},{"type":"Point","properties":{"ID":"10292","NAME":"Emery Forwarding-Inglewood-CA","TYPE":"AIR","MODE_TYPE":"AIR & TRUCK","CITY":"Inglewood","STATE":"CA","FIPS":"06","ZIP":"90303","ZIP2":null,"PARCEL":0,"LATITUDE":33.94543,"LONGITUDE":-118.33517,"GEOSOURCE":"GDT 2001 STREETS","CREATEDATE":"2003/04/09","CREATOR":"INDUS","MODDATE":null,"ASSOC":null},"coordinates":[4736,3344]},{"type":"Point","properties":{"ID":"10293","NAME":"Emery Customs Brokers-Los Angelos-CA","TYPE":"AIR","MODE_TYPE":"AIR & TRUCK","CITY":"Los Angeles","STATE":"CA","FIPS":"06","ZIP":"90045","ZIP2":null,"PARCEL":0,"LATITUDE":33.94531,"LONGITUDE":-118.37597,"GEOSOURCE":"GDT 2001 STREETS","CREATEDATE":"2003/04/09","CREATOR":"INDUS","MODDATE":null,"ASSOC":null},"coordinates":[4732,3344]},{"type":"Point","properties":{"ID":"10294","NAME":"Emery Ocean Services-Los Angeles-Ca","TYPE":"AIR","MODE_TYPE":"AIR & TRUCK","CITY":"Los Angeles","STATE":"CA","FIPS":"06","ZIP":"90045","ZIP2":null,"PARCEL":0,"LATITUDE":33.94531,"LONGITUDE":-118.37597,"GEOSOURCE":"GDT 2001 STREETS","CREATEDATE":"2003/04/09","CREATOR":"INDUS","MODDATE":null,"ASSOC":null},"coordinates":[4732,3344]},{"type":"Point","properties":{"ID":"10295","NAME":"Emery Forwarding-Los Angeles-CA-Global Sales","TYPE":"AIR","MODE_TYPE":"AIR & TRUCK","CITY":"Los Angeles","STATE":"CA","FIPS":"06","ZIP":"90045","ZIP2":null,"PARCEL":0,"LATITUDE":33.94531,"LONGITUDE":-118.37597,"GEOSOURCE":"GDT 2001 STREETS","CREATEDATE":"2003/04/09","CREATOR":"INDUS","MODDATE":null,"ASSOC":null},"coordinates":[4732,3344]},{"type":"Point","properties":{"ID":"10296","NAME":"Emery Forwarding-Ontario-CA","TYPE":"AIR","MODE_TYPE":"AIR & TRUCK","CITY":"Ontario","STATE":"CA","FIPS":"06","ZIP":"91761","ZIP2":null,"PARCEL":0,"LATITUDE":34.03777,"LONGITUDE":-117.59333,"GEOSOURCE":"GDT 2001 STREETS","CREATEDATE":"2003/04/09","CREATOR":"INDUS","MODDATE":null,"ASSOC":null},"coordinates":[4811,3364]},{"type":"Point","properties":{"ID":"10297","NAME":"Emery Forwarding-San Diego-CA","TYPE":"AIR","MODE_TYPE":"AIR & TRUCK","CITY":"San Diego","STATE":"CA","FIPS":"06","ZIP":"92154","ZIP2":null,"PARCEL":0,"LATITUDE":32.55116,"LONGITUDE":-116.94517,"GEOSOURCE":"GDT 2001 STREETS","CREATEDATE":"2003/04/09","CREATOR":"INDUS","MODDATE":null,"ASSOC":null},"coordinates":[4876,3043]},{"type":"Point","properties":{"ID":"10298","NAME":"Emery Forwarding-Mather-CA","TYPE":"AIR","MODE_TYPE":"AIR & TRUCK","CITY":"Mather","STATE":"CA","FIPS":"06","ZIP":"95655","ZIP2":null,"PARCEL":0,"LATITUDE":38.55734,"LONGITUDE":-121.3107,"GEOSOURCE":"GDT 2001 STREETS","CREATEDATE":"2003/04/09","CREATOR":"INDUS","MODDATE":null,"ASSOC":null},"coordinates":[4437,4338]},{"type":"Point","properties":{"ID":"103","NAME":"PORT OF ORANGE","TYPE":"PORT","MODE_TYPE":"TRUCK - PORT - RAIL","CITY":"ORANGE","STATE":"TX","FIPS":"48","ZIP":"77630","ZIP2":"2410","PARCEL":0,"LATITUDE":30.1056,"LONGITUDE":-93.75279,"GEOSOURCE":"GDT 2000 STREETS","CREATEDATE":"2003/04/09","CREATOR":"INDUS","MODDATE":null,"ASSOC":null},"coordinates":[7208,2516]},{"type":"Point","properties":{"ID":"1030","NAME":"RELOAD CENTRAL INC-KANSAS CITY-MO","TYPE":"RAIL","MODE_TYPE":"RAIL & TRUCK","CITY":"KANSAS CITY","STATE":"MO","FIPS":"29","ZIP":"64123","ZIP2":"1969","PARCEL":0,"LATITUDE":39.11206,"LONGITUDE":-94.50439,"GEOSOURCE":"GDT 2000 STREETS","CREATEDATE":"2003/04/09","CREATOR":"INDUS","MODDATE":null,"ASSOC":"CN"},"coordinates":[7133,4458]},{"type":"Point","properties":{"ID":"10300","NAME":"Emery Customs Brokers-San Francisco-Ca","TYPE":"AIR","MODE_TYPE":"AIR & TRUCK","CITY":"South San Francisco","STATE":"CA","FIPS":"06","ZIP":"94080","ZIP2":null,"PARCEL":0,"LATITUDE":37.65858,"LONGITUDE":-122.405,"GEOSOURCE":"GDT 2001 STREETS","CREATEDATE":"2003/04/09","CREATOR":"INDUS","MODDATE":null,"ASSOC":null},"coordinates":[4327,4145]},{"type":"Point","properties":{"ID":"10301","NAME":"Emery Ocean Services-Redwood City-CA","TYPE":"AIR","MODE_TYPE":"AIR & TRUCK","CITY":"Redwood City","STATE":"CA","FIPS":"06","ZIP":"94065","ZIP2":null,"PARCEL":0,"LATITUDE":37.52858,"LONGITUDE":-122.26188,"GEOSOURCE":"GDT 2001 STREETS","CREATEDATE":"2003/04/09","CREATOR":"INDUS","MODDATE":null,"ASSOC":null},"coordinates":[4342,4117]},{"type":"Point","properties":{"ID":"10302","NAME":"Emery Forwarding-San Jose-CA","TYPE":"AIR","MODE_TYPE":"AIR & TRUCK","CITY":"San Jose","STATE":"CA","FIPS":"06","ZIP":"95131","ZIP2":null,"PARCEL":0,"LATITUDE":37.39224,"LONGITUDE":-121.9141,"GEOSOURCE":"GDT 2001 STREETS","CREATEDATE":"2003/04/09","CREATOR":"INDUS","MODDATE":null,"ASSOC":null},"coordinates":[4377,4087]},{"type":"Point","properties":{"ID":"10303","NAME":"Emery Forwarding-Tracy-CA","TYPE":"AIR","MODE_TYPE":"AIR & TRUCK","CITY":"Tracy","STATE":"CA","FIPS":"06","ZIP":"95377","ZIP2":null,"PARCEL":0,"LATITUDE":37.72057,"LONGITUDE":-121.52193,"GEOSOURCE":"GDT 2001 STREETS","CREATEDATE":"2003/04/09","CREATOR":"INDUS","MODDATE":null,"ASSOC":null},"coordinates":[4416,4158]},{"type":"Point","properties":{"ID":"10304","NAME":"Emery Forwarding-Colorado Springs-CO","TYPE":"AIR","MODE_TYPE":"AIR & TRUCK","CITY":"Colorado Springs","STATE":"CO","FIPS":"08","ZIP":"80916","ZIP2":null,"PARCEL":0,"LATITUDE":38.8098,"LONGITUDE":-104.72533,"GEOSOURCE":"GDT 2001 STREETS","CREATEDATE":"2003/04/09","CREATOR":"INDUS","MODDATE":null,"ASSOC":null},"coordinates":[6105,4393]},{"type":"Point","properties":{"ID":"10306","NAME":"Emery Forwarding-Denver-CO","TYPE":"AIR","MODE_TYPE":"AIR & TRUCK","CITY":"Denver","STATE":"CO","FIPS":"08","ZIP":"80239","ZIP2":null,"PARCEL":0,"LATITUDE":39.78412,"LONGITUDE":-104.84885,"GEOSOURCE":"GDT 2001 STREETS","CREATEDATE":"2003/04/09","CREATOR":"INDUS","MODDATE":null,"ASSOC":null},"coordinates":[6093,4603]},{"type":"Point","properties":{"ID":"10307","NAME":"Emery Customs Brokers-Denver-CO","TYPE":"AIR","MODE_TYPE":"AIR & TRUCK","CITY":"Denver","STATE":"CO","FIPS":"08","ZIP":"80239","ZIP2":null,"PARCEL":0,"LATITUDE":39.78412,"LONGITUDE":-104.84885,"GEOSOURCE":"GDT 2001 STREETS","CREATEDATE":"2003/04/09","CREATOR":"INDUS","MODDATE":null,"ASSOC":null},"coordinates":[6093,4603]},{"type":"Point","properties":{"ID":"10308","NAME":"Emery Forwarding-Windsor Locks-CT","TYPE":"AIR","MODE_TYPE":"AIR & TRUCK","CITY":"Windsor Locks","STATE":"CT","FIPS":"09","ZIP":"06096","ZIP2":null,"PARCEL":0,"LATITUDE":41.93682,"LONGITUDE":-72.67069,"GEOSOURCE":"GDT 2001 STREETS","CREATEDATE":"2003/04/09","CREATOR":"INDUS","MODDATE":null,"ASSOC":null},"coordinates":[9328,5067]},{"type":"Point","properties":{"ID":"1031","NAME":"CENTRAL MISSOURI RELOAD-KANSAS CITY-MO","TYPE":"RAIL","MODE_TYPE":"RAIL & TRUCK","CITY":"KANSAS CITY","STATE":"MO","FIPS":"29","ZIP":"64127","ZIP2":null,"PARCEL":0,"LATITUDE":39.09508,"LONGITUDE":-94.53635,"GEOSOURCE":"GDT 2000 STREETS","CREATEDATE":"2003/04/09","CREATOR":"INDUS","MODDATE":null,"ASSOC":"CN"},"coordinates":[7130,4454]},{"type":"Point","properties":{"ID":"10310","NAME":"Emery Forwarding-Washington-DC","TYPE":"AIR","MODE_TYPE":"AIR & TRUCK","CITY":"Sterling","STATE":"VA","FIPS":"51","ZIP":"20166","ZIP2":null,"PARCEL":0,"LATITUDE":38.97847,"LONGITUDE":-77.44683,"GEOSOURCE":"GDT 2001 STREETS","CREATEDATE":"2003/04/09","CREATOR":"INDUS","MODDATE":null,"ASSOC":null},"coordinates":[8848,4429]},{"type":"Point","properties":{"ID":"10312","NAME":"Emery Forwarding-Fort Lauderdale-FL","TYPE":"AIR","MODE_TYPE":"AIR & TRUCK","CITY":"Fort Lauderdale","STATE":"FL","FIPS":"12","ZIP":"33315","ZIP2":null,"PARCEL":0,"LATITUDE":26.08172,"LONGITUDE":-80.15955,"GEOSOURCE":"GDT 2001 STREETS","CREATEDATE":"2003/04/09","CREATOR":"INDUS","MODDATE":null,"ASSOC":null},"coordinates":[8575,1648]},{"type":"Point","properties":{"ID":"10314","NAME":"Emery Customs Brokers-Miami-FL","TYPE":"AIR","MODE_TYPE":"AIR & TRUCK","CITY":"Miami","STATE":"FL","FIPS":"12","ZIP":"33172","ZIP2":null,"PARCEL":0,"LATITUDE":25.80229,"LONGITUDE":-80.37477,"GEOSOURCE":"GDT 2001 STREETS","CREATEDATE":"2003/04/09","CREATOR":"INDUS","MODDATE":null,"ASSOC":null},"coordinates":[8554,1588]},{"type":"Point","properties":{"ID":"10315","NAME":"Emery Ocean Services-Miami-FL","TYPE":"AIR","MODE_TYPE":"AIR & TRUCK","CITY":"Miami","STATE":"FL","FIPS":"12","ZIP":"33172","ZIP2":null,"PARCEL":0,"LATITUDE":25.80229,"LONGITUDE":-80.37477,"GEOSOURCE":"GDT 2001 STREETS","CREATEDATE":"2003/04/09","CREATOR":"INDUS","MODDATE":null,"ASSOC":null},"coordinates":[8554,1588]},{"type":"Point","properties":{"ID":"10316","NAME":"Menlo Worldwide Logistics-Miami-FL","TYPE":"AIR","MODE_TYPE":"AIR & TRUCK","CITY":"Miami","STATE":"FL","FIPS":"12","ZIP":"33172","ZIP2":null,"PARCEL":0,"LATITUDE":25.80229,"LONGITUDE":-80.37477,"GEOSOURCE":"GDT 2001 STREETS","CREATEDATE":"2003/04/09","CREATOR":"INDUS","MODDATE":null,"ASSOC":null},"coordinates":[8554,1588]},{"type":"Point","properties":{"ID":"10317","NAME":"Emery Forwarding-Orlando-FL","TYPE":"AIR","MODE_TYPE":"AIR & TRUCK","CITY":"Orlando","STATE":"FL","FIPS":"12","ZIP":"32827","ZIP2":null,"PARCEL":0,"LATITUDE":28.42356,"LONGITUDE":-81.33268,"GEOSOURCE":"GDT 2001 STREETS","CREATEDATE":"2003/04/09","CREATOR":"INDUS","MODDATE":null,"ASSOC":null},"coordinates":[8457,2153]},{"type":"Point","properties":{"ID":"1032","NAME":"LEFLEUR PAPER COMPANY, LLC","TYPE":"RAIL","MODE_TYPE":"RAIL & TRUCK","CITY":"RICHLAND","STATE":"MS","FIPS":"28","ZIP":"39218","ZIP2":null,"PARCEL":0,"LATITUDE":32.26432,"LONGITUDE":-90.16943,"GEOSOURCE":"GDT 2000 STREETS","CREATEDATE":"2003/04/09","CREATOR":"INDUS","MODDATE":null,"ASSOC":"CN"},"coordinates":[7569,2981]},{"type":"Point","properties":{"ID":"1033","NAME":"NATCHEZ ADAM COUNTY PORT COMMISSION","TYPE":"RAIL","MODE_TYPE":"RAIL & TRUCK","CITY":"NATCHEZ","STATE":"MS","FIPS":"28","ZIP":null,"ZIP2":null,"PARCEL":0,"LATITUDE":34.93365,"LONGITUDE":-89.6691,"GEOSOURCE":"GDT 2000 STREETS","CREATEDATE":"2003/04/09","CREATOR":"INDUS","MODDATE":null,"ASSOC":"CN"},"coordinates":[7619,3557]},{"type":"Point","properties":{"ID":"1034","NAME":"INTERSTATE MERCHANDISE WAREHOUSE INC.","TYPE":"RAIL","MODE_TYPE":"RAIL & TRUCK","CITY":"MERIDIAN","STATE":"MS","FIPS":"28","ZIP":"39301","ZIP2":null,"PARCEL":0,"LATITUDE":32.36619,"LONGITUDE":-88.69318,"GEOSOURCE":"GDT 2000 STREETS","CREATEDATE":"2003/04/09","CREATOR":"INDUS","MODDATE":null,"ASSOC":"CN"},"coordinates":[7717,3003]},{"type":"Point","properties":{"ID":"10340","NAME":"Emery Forwarding-Tampa-FL","TYPE":"AIR","MODE_TYPE":"AIR & TRUCK","CITY":"Tampa","STATE":"FL","FIPS":"12","ZIP":"33614","ZIP2":null,"PARCEL":0,"LATITUDE":27.97407,"LONGITUDE":-82.52233,"GEOSOURCE":"GDT 2001 STREETS","CREATEDATE":"2003/04/09","CREATOR":"INDUS","MODDATE":null,"ASSOC":null},"coordinates":[8338,2056]},{"type":"Point","properties":{"ID":"10341","NAME":"Emery Customs Brokers-Tampa-FL","TYPE":"AIR","MODE_TYPE":"AIR & TRUCK","CITY":"Tampa","STATE":"FL","FIPS":"12","ZIP":"33614","ZIP2":null,"PARCEL":0,"LATITUDE":27.97407,"LONGITUDE":-82.52233,"GEOSOURCE":"GDT 2001 STREETS","CREATEDATE":"2003/04/09","CREATOR":"INDUS","MODDATE":null,"ASSOC":null},"coordinates":[8338,2056]},{"type":"Point","properties":{"ID":"10342","NAME":"Emery Forwarding-Atlanta-GA","TYPE":"AIR","MODE_TYPE":"AIR & TRUCK","CITY":"Forest Park","STATE":"GA","FIPS":"13","ZIP":"30297","ZIP2":null,"PARCEL":0,"LATITUDE":33.60164,"LONGITUDE":-84.38194,"GEOSOURCE":"GDT 2001 STREETS","CREATEDATE":"2003/04/09","CREATOR":"INDUS","MODDATE":null,"ASSOC":null},"coordinates":[8151,3270]},{"type":"Point","properties":{"ID":"10343","NAME":"Emery Customs Brokers-Forest Park-GA","TYPE":"AIR","MODE_TYPE":"AIR & TRUCK","CITY":"Forest Park","STATE":"GA","FIPS":"13","ZIP":"3029","ZIP2":null,"PARCEL":0,"LATITUDE":33.60043,"LONGITUDE":-84.39033,"GEOSOURCE":"GDT 2001 STREETS","CREATEDATE":"2003/04/09","CREATOR":"INDUS","MODDATE":null,"ASSOC":null},"coordinates":[8150,3269]},{"type":"Point","properties":{"ID":"10345","NAME":"Emory Ocean Services-Forest Park-GA","TYPE":"AIR","MODE_TYPE":"AIR & TRUCK","CITY":"Forest Park","STATE":"GA","FIPS":"13","ZIP":"30297","ZIP2":null,"PARCEL":0,"LATITUDE":33.60164,"LONGITUDE":-84.38194,"GEOSOURCE":"GDT 2001 STREETS","CREATEDATE":"2003/04/09","CREATOR":"INDUS","MODDATE":null,"ASSOC":null},"coordinates":[8151,3270]},{"type":"Point","properties":{"ID":"10346","NAME":"Emery Forwarding-Honolulu-HI","TYPE":"AIR","MODE_TYPE":"AIR & TRUCK","CITY":"Honolulu","STATE":"HI","FIPS":"15","ZIP":"96819","ZIP2":null,"PARCEL":0,"LATITUDE":21.3268,"LONGITUDE":-157.9116,"GEOSOURCE":"GDT 2001 STREETS","CREATEDATE":"2003/04/09","CREATOR":"INDUS","MODDATE":null,"ASSOC":null},"coordinates":[757,623]},{"type":"Point","properties":{"ID":"10348","NAME":"Temple Trucking-Urbana-IL","TYPE":"AIR","MODE_TYPE":"AIR & TRUCK","CITY":"Urbana","STATE":"IL","FIPS":"17","ZIP":"61802","ZIP2":null,"PARCEL":0,"LATITUDE":40.13862,"LONGITUDE":-88.2198,"GEOSOURCE":"GDT 2001 STREETS","CREATEDATE":"2003/04/09","CREATOR":"INDUS","MODDATE":null,"ASSOC":null},"coordinates":[7765,4679]},{"type":"Point","properties":{"ID":"10349","NAME":"Emery Customs Brokers-Bensenville-IL","TYPE":"AIR","MODE_TYPE":"AIR & TRUCK","CITY":"Bensenville","STATE":"IL","FIPS":"17","ZIP":"60106","ZIP2":null,"PARCEL":0,"LATITUDE":41.95782,"LONGITUDE":-87.92786,"GEOSOURCE":"GDT 2001 STREETS","CREATEDATE":"2003/04/09","CREATOR":"INDUS","MODDATE":null,"ASSOC":null},"coordinates":[7794,5072]},{"type":"Point","properties":{"ID":"1035","NAME":"MID-AMERICAN DISTRIBUTION COMPANIES","TYPE":"RAIL","MODE_TYPE":"RAIL & TRUCK","CITY":"MCCOMB","STATE":"MS","FIPS":"28","ZIP":"39648","ZIP2":null,"PARCEL":0,"LATITUDE":31.24314,"LONGITUDE":-90.45129,"GEOSOURCE":"GDT 2000 STREETS","CREATEDATE":"2003/04/09","CREATOR":"INDUS","MODDATE":null,"ASSOC":"CN"},"coordinates":[7540,2761]},{"type":"Point","properties":{"ID":"10351","NAME":"Emery Ocean Services","TYPE":"AIR","MODE_TYPE":"AIR & TRUCK","CITY":"Bensenville","STATE":"IL","FIPS":"17","ZIP":"60106","ZIP2":null,"PARCEL":0,"LATITUDE":41.99317,"LONGITUDE":-87.9592,"GEOSOURCE":"GDT 2001 STREETS","CREATEDATE":"2003/04/09","CREATOR":"INDUS","MODDATE":null,"ASSOC":null},"coordinates":[7791,5079]},{"type":"Point","properties":{"ID":"1037","NAME":"LAKE SUPERIOR WAREHOUSING","TYPE":"RAIL","MODE_TYPE":"RAIL & TRUCK","CITY":"DULUTH","STATE":"MN","FIPS":"27","ZIP":"55802","ZIP2":"2609","PARCEL":0,"LATITUDE":46.75613,"LONGITUDE":-92.10139,"GEOSOURCE":"GDT 2000 STREETS","CREATEDATE":"2003/04/09","CREATOR":"INDUS","MODDATE":null,"ASSOC":"CN"},"coordinates":[7374,6106]},{"type":"Point","properties":{"ID":"10374","NAME":"Emery Forwarding-Bensenville-IL","TYPE":"AIR","MODE_TYPE":"AIR & TRUCK","CITY":"Bensenville","STATE":"IL","FIPS":"17","ZIP":"60106","ZIP2":null,"PARCEL":0,"LATITUDE":41.95942,"LONGITUDE":-87.92866,"GEOSOURCE":"GDT 2001 STREETS","CREATEDATE":"2003/04/09","CREATOR":"INDUS","MODDATE":null,"ASSOC":null},"coordinates":[7794,5072]},{"type":"Point","properties":{"ID":"10380","NAME":"Emery Forwarding-Bensenville-IL-Global Sales","TYPE":"AIR","MODE_TYPE":"AIR & TRUCK","CITY":"Bensenville","STATE":"IL","FIPS":"17","ZIP":"60106","ZIP2":null,"PARCEL":0,"LATITUDE":41.95782,"LONGITUDE":-87.92786,"GEOSOURCE":"GDT 2001 STREETS","CREATEDATE":"2003/04/09","CREATOR":"INDUS","MODDATE":null,"ASSOC":null},"coordinates":[7794,5072]},{"type":"Point","properties":{"ID":"10382","NAME":"Emery Forwarding-Bridgeview-IL","TYPE":"AIR","MODE_TYPE":"AIR & TRUCK","CITY":"Bridgeview","STATE":"IL","FIPS":"17","ZIP":"60455","ZIP2":null,"PARCEL":0,"LATITUDE":41.70427,"LONGITUDE":-87.80177,"GEOSOURCE":"GDT 2001 STREETS","CREATEDATE":"2003/04/09","CREATOR":"INDUS","MODDATE":null,"ASSOC":null},"coordinates":[7807,5017]},{"type":"Point","properties":{"ID":"1039","NAME":"K AND K WAREHOUSING-MENOMINEE-MI","TYPE":"RAIL","MODE_TYPE":"RAIL & TRUCK","CITY":"MENOMINEE","STATE":"MI","FIPS":"26","ZIP":"49858","ZIP2":null,"PARCEL":0,"LATITUDE":45.10175,"LONGITUDE":-87.60776,"GEOSOURCE":"GDT 2000 STREETS","CREATEDATE":"2003/04/09","CREATOR":"INDUS","MODDATE":null,"ASSOC":"CN"},"coordinates":[7826,5750]},{"type":"Point","properties":{"ID":"10390","NAME":"Emery Forwarding-Moline-IL","TYPE":"AIR","MODE_TYPE":"AIR & TRUCK","CITY":"Moline","STATE":"IL","FIPS":"17","ZIP":"61265","ZIP2":null,"PARCEL":0,"LATITUDE":41.46434,"LONGITUDE":-90.45623,"GEOSOURCE":"GDT 2001 STREETS","CREATEDATE":"2003/04/09","CREATOR":"INDUS","MODDATE":null,"ASSOC":null},"coordinates":[7540,4965]},{"type":"Point","properties":{"ID":"10396","NAME":"Emery Forwarding-Peoria-IL","TYPE":"AIR","MODE_TYPE":"AIR & TRUCK","CITY":"Peoria","STATE":"IL","FIPS":"17","ZIP":"61607","ZIP2":null,"PARCEL":0,"LATITUDE":40.65595,"LONGITUDE":-89.68168,"GEOSOURCE":"GDT 2001 STREETS","CREATEDATE":"2003/04/09","CREATOR":"INDUS","MODDATE":null,"ASSOC":null},"coordinates":[7618,4791]},{"type":"Point","properties":{"ID":"10397","NAME":"Emery Forwarding-Rockford-Il","TYPE":"AIR","MODE_TYPE":"AIR & TRUCK","CITY":"Rockford","STATE":"IL","FIPS":"17","ZIP":"61109","ZIP2":null,"PARCEL":0,"LATITUDE":42.18694,"LONGITUDE":-89.10054,"GEOSOURCE":"GDT 2001 STREETS","CREATEDATE":"2003/04/09","CREATOR":"INDUS","MODDATE":null,"ASSOC":null},"coordinates":[7676,5121]},{"type":"Point","properties":{"ID":"104","NAME":"SUPERIOR BOARD OF HARBOR COMMISSIONERS","TYPE":"PORT","MODE_TYPE":"TRUCK - PORT - RAIL","CITY":"SUPERIOR","STATE":"WI","FIPS":"55","ZIP":"54880","ZIP2":null,"PARCEL":0,"LATITUDE":46.72156,"LONGITUDE":-92.09774,"GEOSOURCE":"GDT 2000 STREETS","CREATEDATE":"2003/04/09","CREATOR":"INDUS","MODDATE":null,"ASSOC":"BN, CNW, DMIR, DWP, SOO"},"coordinates":[7375,6099]},{"type":"Point","properties":{"ID":"1040","NAME":"LEWIS C HOWARD INC","TYPE":"RAIL","MODE_TYPE":"RAIL & TRUCK","CITY":"KALAMAZOO","STATE":"MI","FIPS":"26","ZIP":"49001","ZIP2":null,"PARCEL":0,"LATITUDE":42.2836,"LONGITUDE":-85.57219,"GEOSOURCE":"GDT 2000 STREETS","CREATEDATE":"2003/04/09","CREATOR":"INDUS","MODDATE":null,"ASSOC":"CN"},"coordinates":[8031,5142]},{"type":"Point","properties":{"ID":"1041","NAME":"MIDWEST TIMBER","TYPE":"RAIL","MODE_TYPE":"RAIL & TRUCK","CITY":"EDWARDSBURG","STATE":"MI","FIPS":"26","ZIP":null,"ZIP2":null,"PARCEL":0,"LATITUDE":44.8579,"LONGITUDE":-84.65369,"GEOSOURCE":"GDT 2000 STREETS","CREATEDATE":"2003/04/09","CREATOR":"INDUS","MODDATE":null,"ASSOC":"CN"},"coordinates":[8123,5697]},{"type":"Point","properties":{"ID":"1042","NAME":"CN LUMBER RELOAD-DETROIT-MI","TYPE":"RAIL","MODE_TYPE":"RAIL & TRUCK","CITY":"DETROIT","STATE":"MI","FIPS":"26","ZIP":"48234","ZIP2":null,"PARCEL":0,"LATITUDE":42.44155,"LONGITUDE":-83.01394,"GEOSOURCE":"GDT 2000 STREETS","CREATEDATE":"2003/04/09","CREATOR":"INDUS","MODDATE":null,"ASSOC":"CN"},"coordinates":[8288,5176]},{"type":"Point","properties":{"ID":"10421","NAME":"Emery Forwarding-Evansville-IN","TYPE":"AIR","MODE_TYPE":"AIR & TRUCK","CITY":"Evansville","STATE":"IN","FIPS":"18","ZIP":"47715","ZIP2":null,"PARCEL":0,"LATITUDE":38.00056,"LONGITUDE":-87.48573,"GEOSOURCE":"GDT 2001 STREETS","CREATEDATE":"2003/04/09","CREATOR":"INDUS","MODDATE":null,"ASSOC":null},"coordinates":[7839,4218]},{"type":"Point","properties":{"ID":"10422","NAME":"Emery Forwarding-Fort Wayne-IN","TYPE":"AIR","MODE_TYPE":"AIR & TRUCK","CITY":"Fort Wayne","STATE":"IN","FIPS":"18","ZIP":"46809","ZIP2":null,"PARCEL":0,"LATITUDE":40.99622,"LONGITUDE":-85.19627,"GEOSOURCE":"GDT 2001 STREETS","CREATEDATE":"2003/04/09","CREATOR":"INDUS","MODDATE":null,"ASSOC":null},"coordinates":[8069,4864]},{"type":"Point","properties":{"ID":"10425","NAME":"Emery Forwarding-Indianapolis-IN","TYPE":"AIR","MODE_TYPE":"AIR & TRUCK","CITY":"Indianapolis","STATE":"IN","FIPS":"18","ZIP":"46241","ZIP2":null,"PARCEL":0,"LATITUDE":39.74968,"LONGITUDE":-86.28556,"GEOSOURCE":"GDT 2001 STREETS","CREATEDATE":"2003/04/09","CREATOR":"INDUS","MODDATE":null,"ASSOC":null},"coordinates":[7959,4596]},{"type":"Point","properties":{"ID":"10436","NAME":"Emery Forwarding-South Bend-IN","TYPE":"AIR","MODE_TYPE":"AIR & TRUCK","CITY":"South Bend","STATE":"IN","FIPS":"18","ZIP":"46628","ZIP2":null,"PARCEL":0,"LATITUDE":41.69212,"LONGITUDE":-86.29574,"GEOSOURCE":"GDT 2001 STREETS","CREATEDATE":"2003/04/09","CREATOR":"INDUS","MODDATE":null,"ASSOC":null},"coordinates":[7958,5014]},{"type":"Point","properties":{"ID":"10446","NAME":"Emery Forwarding-Des Moines-IA","TYPE":"AIR","MODE_TYPE":"AIR & TRUCK","CITY":"Des Moines","STATE":"IA","FIPS":"19","ZIP":"50321","ZIP2":null,"PARCEL":0,"LATITUDE":41.54094,"LONGITUDE":-93.65395,"GEOSOURCE":"GDT 2001 STREETS","CREATEDATE":"2003/04/09","CREATOR":"INDUS","MODDATE":null,"ASSOC":null},"coordinates":[7218,4982]},{"type":"Point","properties":{"ID":"1045","NAME":"MURPHY BONDED WAREHOUSE","TYPE":"RAIL","MODE_TYPE":"RAIL & TRUCK","CITY":"SHREVEPORT","STATE":"LA","FIPS":"22","ZIP":"71108","ZIP2":null,"PARCEL":0,"LATITUDE":32.45638,"LONGITUDE":-93.77662,"GEOSOURCE":"GDT 2000 STREETS","CREATEDATE":"2003/04/09","CREATOR":"INDUS","MODDATE":null,"ASSOC":"CN"},"coordinates":[7206,3023]},{"type":"Point","properties":{"ID":"10456","NAME":"Menlo Worldwide Expedite!-Overland Park-KS","TYPE":"AIR","MODE_TYPE":"AIR & TRUCK","CITY":"Overland Park","STATE":"KS","FIPS":"20","ZIP":"66210","ZIP2":null,"PARCEL":0,"LATITUDE":38.93046,"LONGITUDE":-94.67703,"GEOSOURCE":"GDT 2001 STREETS","CREATEDATE":"2003/04/09","CREATOR":"INDUS","MODDATE":null,"ASSOC":null},"coordinates":[7115,4419]},{"type":"Point","properties":{"ID":"1046","NAME":"MONROE WAREHOUSE CO.","TYPE":"RAIL","MODE_TYPE":"RAIL & TRUCK","CITY":"MONROE","STATE":"LA","FIPS":"22","ZIP":"71202","ZIP2":null,"PARCEL":0,"LATITUDE":32.48405,"LONGITUDE":-92.10922,"GEOSOURCE":"GDT 2000 STREETS","CREATEDATE":"2003/04/09","CREATOR":"INDUS","MODDATE":null,"ASSOC":"CN"},"coordinates":[7374,3029]},{"type":"Point","properties":{"ID":"1047","NAME":"AGWAY SYSTEMS INC.","TYPE":"RAIL","MODE_TYPE":"RAIL & TRUCK","CITY":"BATON ROUGE","STATE":"LA","FIPS":"22","ZIP":"70807","ZIP2":"1519","PARCEL":0,"LATITUDE":30.56561,"LONGITUDE":-91.17648,"GEOSOURCE":"GDT 2000 STREETS","CREATEDATE":"2003/04/09","CREATOR":"INDUS","MODDATE":null,"ASSOC":"CN"},"coordinates":[7467,2615]},{"type":"Point","properties":{"ID":"1048","NAME":"ROBERTS AND DYBDAHL INC.","TYPE":"RAIL","MODE_TYPE":"RAIL & TRUCK","CITY":"WATERLOO","STATE":"IA","FIPS":"19","ZIP":"50703","ZIP2":"2326","PARCEL":0,"LATITUDE":42.52116,"LONGITUDE":-92.35012,"GEOSOURCE":"GDT 2000 STREETS","CREATEDATE":"2003/04/09","CREATOR":"INDUS","MODDATE":null,"ASSOC":"CN"},"coordinates":[7349,5193]},{"type":"Point","properties":{"ID":"10483","NAME":"Menlo Worldwide Expedite!-Vandalia-OH","TYPE":"AIR","MODE_TYPE":"AIR & TRUCK","CITY":"Vandalia","STATE":"OH","FIPS":"39","ZIP":"45377","ZIP2":null,"PARCEL":0,"LATITUDE":39.89836,"LONGITUDE":-84.22643,"GEOSOURCE":"GDT 2001 STREETS","CREATEDATE":"2003/04/09","CREATOR":"INDUS","MODDATE":null,"ASSOC":null},"coordinates":[8166,4628]},{"type":"Point","properties":{"ID":"10484","NAME":"Emery Forwarding-Witchita-KS","TYPE":"AIR","MODE_TYPE":"AIR & TRUCK","CITY":"Witchita","STATE":"KS","FIPS":"20","ZIP":"67209","ZIP2":null,"PARCEL":0,"LATITUDE":37.65719,"LONGITUDE":-97.43097,"GEOSOURCE":"GDT 2001 STREETS","CREATEDATE":"2003/04/09","CREATOR":"INDUS","MODDATE":null,"ASSOC":null},"coordinates":[6839,4144]},{"type":"Point","properties":{"ID":"10485","NAME":"Emery Forwarding-Lexington-KY","TYPE":"AIR","MODE_TYPE":"AIR & TRUCK","CITY":"Lexington","STATE":"KY","FIPS":"21","ZIP":"40511","ZIP2":null,"PARCEL":0,"LATITUDE":38.07553,"LONGITUDE":-84.54496,"GEOSOURCE":"GDT 2001 STREETS","CREATEDATE":"2003/04/09","CREATOR":"INDUS","MODDATE":null,"ASSOC":null},"coordinates":[8134,4235]},{"type":"Point","properties":{"ID":"10486","NAME":"Emery Customs Brokers-Lexington-KY","TYPE":"AIR","MODE_TYPE":"AIR & TRUCK","CITY":"Lexington","STATE":"KY","FIPS":"21","ZIP":"40511","ZIP2":null,"PARCEL":0,"LATITUDE":38.07553,"LONGITUDE":-84.54496,"GEOSOURCE":"GDT 2001 STREETS","CREATEDATE":"2003/04/09","CREATOR":"INDUS","MODDATE":null,"ASSOC":null},"coordinates":[8134,4235]},{"type":"Point","properties":{"ID":"10487","NAME":"Emery Forwarding-Louisville-KY","TYPE":"AIR","MODE_TYPE":"AIR & TRUCK","CITY":"Louisville","STATE":"KY","FIPS":"21","ZIP":"40209","ZIP2":null,"PARCEL":0,"LATITUDE":38.18115,"LONGITUDE":-85.7502,"GEOSOURCE":"GDT 2001 STREETS","CREATEDATE":"2003/04/09","CREATOR":"INDUS","MODDATE":null,"ASSOC":null},"coordinates":[8013,4257]},{"type":"Point","properties":{"ID":"10488","NAME":"Emery Forwarding-Kenner-LA","TYPE":"AIR","MODE_TYPE":"AIR & TRUCK","CITY":"Kenner","STATE":"LA","FIPS":"22","ZIP":"70062","ZIP2":null,"PARCEL":0,"LATITUDE":29.98646,"LONGITUDE":-90.27195,"GEOSOURCE":"GDT 2001 STREETS","CREATEDATE":"2003/04/09","CREATOR":"INDUS","MODDATE":null,"ASSOC":null},"coordinates":[7558,2490]},{"type":"Point","properties":{"ID":"10489","NAME":"Emery Forwarding-Shreveport-LA","TYPE":"AIR","MODE_TYPE":"AIR & TRUCK","CITY":"Shreveport","STATE":"LA","FIPS":"22","ZIP":"71109","ZIP2":null,"PARCEL":0,"LATITUDE":32.4576,"LONGITUDE":-93.82367,"GEOSOURCE":"GDT 2001 STREETS","CREATEDATE":"2003/04/09","CREATOR":"INDUS","MODDATE":null,"ASSOC":null},"coordinates":[7201,3023]},{"type":"Point","properties":{"ID":"1049","NAME":"TRANSFER SERVICES","TYPE":"RAIL","MODE_TYPE":"RAIL & TRUCK","CITY":"CEDAR RAPIDS","STATE":"IA","FIPS":"19","ZIP":"52404","ZIP2":null,"PARCEL":0,"LATITUDE":41.96313,"LONGITUDE":-91.69008,"GEOSOURCE":"GDT 2000 STREETS","CREATEDATE":"2003/04/09","CREATOR":"INDUS","MODDATE":null,"ASSOC":"CN"},"coordinates":[7416,5073]},{"type":"Point","properties":{"ID":"10491","NAME":"Emery Forwarding-Portland-ME","TYPE":"AIR","MODE_TYPE":"AIR & TRUCK","CITY":"Portland","STATE":"ME","FIPS":"23","ZIP":"04103","ZIP2":null,"PARCEL":0,"LATITUDE":43.69179,"LONGITUDE":-70.3254,"GEOSOURCE":"GDT 2001 STREETS","CREATEDATE":"2003/04/09","CREATOR":"INDUS","MODDATE":null,"ASSOC":null},"coordinates":[9564,5446]},{"type":"Point","properties":{"ID":"10492","NAME":"Emery Customs Brokers-Portland-ME","TYPE":"AIR","MODE_TYPE":"AIR & TRUCK","CITY":"Portland","STATE":"ME","FIPS":"23","ZIP":"04103","ZIP2":null,"PARCEL":0,"LATITUDE":43.69179,"LONGITUDE":-70.3254,"GEOSOURCE":"GDT 2001 STREETS","CREATEDATE":"2003/04/09","CREATOR":"INDUS","MODDATE":null,"ASSOC":null},"coordinates":[9564,5446]},{"type":"Point","properties":{"ID":"10495","NAME":"Emery Forwarding-Chelsea-MA","TYPE":"AIR","MODE_TYPE":"AIR & TRUCK","CITY":"Chelsea","STATE":"MA","FIPS":"25","ZIP":"02150","ZIP2":null,"PARCEL":0,"LATITUDE":42.396,"LONGITUDE":-71.02111,"GEOSOURCE":"GDT 2001 STREETS","CREATEDATE":"2003/04/09","CREATOR":"INDUS","MODDATE":null,"ASSOC":null},"coordinates":[9494,5166]},{"type":"Point","properties":{"ID":"10496","NAME":"Emery Customs Brokers-Chelsea-MA","TYPE":"AIR","MODE_TYPE":"AIR & TRUCK","CITY":"Chelsea","STATE":"MA","FIPS":"25","ZIP":"02150","ZIP2":null,"PARCEL":0,"LATITUDE":42.396,"LONGITUDE":-71.02111,"GEOSOURCE":"GDT 2001 STREETS","CREATEDATE":"2003/04/09","CREATOR":"INDUS","MODDATE":null,"ASSOC":null},"coordinates":[9494,5166]},{"type":"Point","properties":{"ID":"10497","NAME":"Emery Ocean Services-Chelsea-MA","TYPE":"AIR","MODE_TYPE":"AIR & TRUCK","CITY":"Chelsea","STATE":"MA","FIPS":"25","ZIP":"02150","ZIP2":null,"PARCEL":0,"LATITUDE":42.396,"LONGITUDE":-71.02111,"GEOSOURCE":"GDT 2001 STREETS","CREATEDATE":"2003/04/09","CREATOR":"INDUS","MODDATE":null,"ASSOC":null},"coordinates":[9494,5166]},{"type":"Point","properties":{"ID":"10498","NAME":"ECB c/o Norman G. Jensen, Inc.-Blue Water Bridge-M","TYPE":"AIR","MODE_TYPE":"AIR & TRUCK","CITY":"Blue Water Bridge","STATE":"MI","FIPS":"26","ZIP":"48060","ZIP2":null,"PARCEL":0,"LATITUDE":42.99937,"LONGITUDE":-82.43595,"GEOSOURCE":"GDT 2001 STREETS","CREATEDATE":"2003/04/09","CREATOR":"INDUS","MODDATE":null,"ASSOC":null},"coordinates":[8346,5296]},{"type":"Point","properties":{"ID":"105","NAME":"ST. PAUL PORT AUTHORITY","TYPE":"PORT","MODE_TYPE":"TRUCK - PORT - RAIL","CITY":"SAINT PAUL","STATE":"MN","FIPS":"27","ZIP":"55102","ZIP2":null,"PARCEL":0,"LATITUDE":44.94468,"LONGITUDE":-93.09519,"GEOSOURCE":"GDT 2000 STREETS","CREATEDATE":"2003/04/09","CREATOR":"INDUS","MODDATE":null,"ASSOC":null},"coordinates":[7275,5716]},{"type":"Point","properties":{"ID":"1050","NAME":"THE INDIANA RAIL ROAD CO.","TYPE":"RAIL","MODE_TYPE":"RAIL & TRUCK","CITY":"INDIANAPOLIS","STATE":"IN","FIPS":"18","ZIP":"46206","ZIP2":null,"PARCEL":0,"LATITUDE":39.74743,"LONGITUDE":-86.16459,"GEOSOURCE":"GDT 2000 STREETS","CREATEDATE":"2003/04/09","CREATOR":"INDUS","MODDATE":null,"ASSOC":"CN"},"coordinates":[7971,4595]},{"type":"Point","properties":{"ID":"10500","NAME":"Emery Customs Brokers-Detroit-MI","TYPE":"AIR","MODE_TYPE":"AIR & TRUCK","CITY":"Detroit","STATE":"MI","FIPS":"26","ZIP":"48216","ZIP2":null,"PARCEL":0,"LATITUDE":42.31827,"LONGITUDE":-83.07646,"GEOSOURCE":"GDT 2001 STREETS","CREATEDATE":"2003/04/09","CREATOR":"INDUS","MODDATE":null,"ASSOC":null},"coordinates":[8282,5149]},{"type":"Point","properties":{"ID":"10502","NAME":"ECB c/o Norman G. Jensen, Inc-Sault Ste. Marie-MI","TYPE":"AIR","MODE_TYPE":"AIR & TRUCK","CITY":"Sault Ste. Marie","STATE":"MI","FIPS":"26","ZIP":"49783","ZIP2":null,"PARCEL":0,"LATITUDE":46.50147,"LONGITUDE":-84.36214,"GEOSOURCE":"GDT 2001 STREETS","CREATEDATE":"2003/04/09","CREATOR":"INDUS","MODDATE":null,"ASSOC":null},"coordinates":[8153,6052]},{"type":"Point","properties":{"ID":"10503","NAME":"Emery Forwarding-Flint-MI","TYPE":"AIR","MODE_TYPE":"AIR & TRUCK","CITY":"Flint","STATE":"MI","FIPS":"26","ZIP":"48507","ZIP2":null,"PARCEL":0,"LATITUDE":42.97298,"LONGITUDE":-83.74451,"GEOSOURCE":"GDT 2001 STREETS","CREATEDATE":"2003/04/09","CREATOR":"INDUS","MODDATE":null,"ASSOC":null},"coordinates":[8215,5291]},{"type":"Point","properties":{"ID":"1051","NAME":"C.W.S., INC.","TYPE":"RAIL","MODE_TYPE":"RAIL & TRUCK","CITY":"VENICE","STATE":"IL","FIPS":"17","ZIP":"62090","ZIP2":"1026","PARCEL":0,"LATITUDE":38.66312,"LONGITUDE":-90.17473,"GEOSOURCE":"GDT 2000 STREETS","CREATEDATE":"2003/04/09","CREATOR":"INDUS","MODDATE":null,"ASSOC":"CN"},"coordinates":[7568,4361]},{"type":"Point","properties":{"ID":"10511","NAME":"Emery Forwarding-Minneapolis-MN-MSP","TYPE":"AIR","MODE_TYPE":"AIR & TRUCK","CITY":"Minneapolis","STATE":"MN","FIPS":"27","ZIP":"55450","ZIP2":null,"PARCEL":0,"LATITUDE":44.8679,"LONGITUDE":-93.23476,"GEOSOURCE":"GDT 2001 STREETS","CREATEDATE":"2003/04/09","CREATOR":"INDUS","MODDATE":null,"ASSOC":null},"coordinates":[7261,5699]},{"type":"Point","properties":{"ID":"10513","NAME":"Emery Forwarding-Jackson-MS","TYPE":"AIR","MODE_TYPE":"AIR & TRUCK","CITY":"Jackson","STATE":"MS","FIPS":"28","ZIP":"39298","ZIP2":null,"PARCEL":0,"LATITUDE":32.30771,"LONGITUDE":-90.07494,"GEOSOURCE":"GDT 2001 STREETS","CREATEDATE":"2003/04/09","CREATOR":"INDUS","MODDATE":null,"ASSOC":null},"coordinates":[7578,2991]},{"type":"Point","properties":{"ID":"10514","NAME":"Emery Forwarding-Kansas City-MO","TYPE":"AIR","MODE_TYPE":"AIR & TRUCK","CITY":"Kansas City","STATE":"MO","FIPS":"29","ZIP":"64153","ZIP2":null,"PARCEL":0,"LATITUDE":39.27794,"LONGITUDE":-94.67316,"GEOSOURCE":"GDT 2001 STREETS","CREATEDATE":"2003/04/09","CREATOR":"INDUS","MODDATE":null,"ASSOC":null},"coordinates":[7116,4494]},{"type":"Point","properties":{"ID":"10515","NAME":"Emery Ocean Services-Kansas City-MO","TYPE":"AIR","MODE_TYPE":"AIR & TRUCK","CITY":"Kansas City","STATE":"MO","FIPS":"29","ZIP":"64153","ZIP2":null,"PARCEL":0,"LATITUDE":39.27794,"LONGITUDE":-94.67316,"GEOSOURCE":"GDT 2001 STREETS","CREATEDATE":"2003/04/09","CREATOR":"INDUS","MODDATE":null,"ASSOC":null},"coordinates":[7116,4494]},{"type":"Point","properties":{"ID":"10516","NAME":"Landair Deliver Services-Springfield-MO","TYPE":"AIR","MODE_TYPE":"AIR & TRUCK","CITY":"Springfield","STATE":"MO","FIPS":"29","ZIP":"65803","ZIP2":null,"PARCEL":0,"LATITUDE":39.74814,"LONGITUDE":-94.60222,"GEOSOURCE":"GDT 2001 STREETS","CREATEDATE":"2003/04/09","CREATOR":"INDUS","MODDATE":null,"ASSOC":null},"coordinates":[7123,4595]},{"type":"Point","properties":{"ID":"10517","NAME":"Emery Forwarding-St. Louis-MO","TYPE":"AIR","MODE_TYPE":"AIR & TRUCK","CITY":"St. Louis","STATE":"MO","FIPS":"29","ZIP":"63134","ZIP2":null,"PARCEL":0,"LATITUDE":38.75602,"LONGITUDE":-90.34875,"GEOSOURCE":"GDT 2001 STREETS","CREATEDATE":"2003/04/09","CREATOR":"INDUS","MODDATE":null,"ASSOC":null},"coordinates":[7551,4381]},{"type":"Point","properties":{"ID":"1054","NAME":"ST.LOUIS RELOAD, INC.","TYPE":"RAIL","MODE_TYPE":"RAIL & TRUCK","CITY":"MADISON","STATE":"IL","FIPS":"17","ZIP":null,"ZIP2":null,"PARCEL":0,"LATITUDE":38.68267,"LONGITUDE":-90.16245,"GEOSOURCE":"GDT 2000 STREETS","CREATEDATE":"2003/04/09","CREATOR":"INDUS","MODDATE":null,"ASSOC":"CN"},"coordinates":[7569,4365]},{"type":"Point","properties":{"ID":"1055","NAME":"PREMIER RELOAD","TYPE":"RAIL","MODE_TYPE":"RAIL & TRUCK","CITY":"FRANKLIN PARK","STATE":"IL","FIPS":"17","ZIP":"60131","ZIP2":"3304","PARCEL":0,"LATITUDE":41.92243,"LONGITUDE":-87.85785,"GEOSOURCE":"GDT 2000 STREETS","CREATEDATE":"2003/04/09","CREATOR":"INDUS","MODDATE":null,"ASSOC":"CN"},"coordinates":[7801,5064]},{"type":"Point","properties":{"ID":"10551","NAME":"Emery Forwarding-Las Vegas-NV","TYPE":"AIR","MODE_TYPE":"AIR & TRUCK","CITY":"Las Vegas","STATE":"NV","FIPS":"32","ZIP":"89118","ZIP2":null,"PARCEL":0,"LATITUDE":36.09544,"LONGITUDE":-115.18462,"GEOSOURCE":"GDT 2001 STREETS","CREATEDATE":"2003/04/09","CREATOR":"INDUS","MODDATE":null,"ASSOC":null},"coordinates":[5053,3808]},{"type":"Point","properties":{"ID":"10555","NAME":"Emery Forwarding-Reno-NV","TYPE":"AIR","MODE_TYPE":"AIR & TRUCK","CITY":"Reno","STATE":"NV","FIPS":"32","ZIP":"89502","ZIP2":null,"PARCEL":0,"LATITUDE":39.50924,"LONGITUDE":-119.77781,"GEOSOURCE":"GDT 2001 STREETS","CREATEDATE":"2003/04/09","CREATOR":"INDUS","MODDATE":null,"ASSOC":null},"coordinates":[4591,4544]},{"type":"Point","properties":{"ID":"10558","NAME":"Emery Forwarding-Portsmouth-NH","TYPE":"AIR","MODE_TYPE":"AIR & TRUCK","CITY":"Portsmouth","STATE":"NH","FIPS":"33","ZIP":"03801","ZIP2":null,"PARCEL":0,"LATITUDE":43.07493,"LONGITUDE":-70.80906,"GEOSOURCE":"GDT 2001 STREETS","CREATEDATE":"2003/04/09","CREATOR":"INDUS","MODDATE":null,"ASSOC":null},"coordinates":[9516,5313]},{"type":"Point","properties":{"ID":"10559","NAME":"Emery Customes Brokers","TYPE":"AIR","MODE_TYPE":"AIR & TRUCK","CITY":"Portsmouth","STATE":"NH","FIPS":"33","ZIP":"03801","ZIP2":null,"PARCEL":0,"LATITUDE":43.07493,"LONGITUDE":-70.80906,"GEOSOURCE":"GDT 2001 STREETS","CREATEDATE":"2003/04/09","CREATOR":"INDUS","MODDATE":null,"ASSOC":null},"coordinates":[9516,5313]},{"type":"Point","properties":{"ID":"1056","NAME":"G AND W DISTRIBUTION","TYPE":"RAIL","MODE_TYPE":"RAIL & TRUCK","CITY":"EFFINGHAM","STATE":"IL","FIPS":"17","ZIP":"62401","ZIP2":"2832","PARCEL":0,"LATITUDE":39.10019,"LONGITUDE":-88.54714,"GEOSOURCE":"GDT 2000 STREETS","CREATEDATE":"2003/04/09","CREATOR":"INDUS","MODDATE":null,"ASSOC":"CN"},"coordinates":[7732,4455]},{"type":"Point","properties":{"ID":"10560","NAME":"Emery Forwarding-Neward-NJ","TYPE":"AIR","MODE_TYPE":"AIR & TRUCK","CITY":"Newark","STATE":"NJ","FIPS":"34","ZIP":"07114","ZIP2":null,"PARCEL":0,"LATITUDE":40.70765,"LONGITUDE":-74.15863,"GEOSOURCE":"GDT 2001 STREETS","CREATEDATE":"2003/04/09","CREATOR":"INDUS","MODDATE":null,"ASSOC":null},"coordinates":[9179,4802]},{"type":"Point","properties":{"ID":"10561","NAME":"Emery Customs Brokers-Newark-NJ","TYPE":"AIR","MODE_TYPE":"AIR & TRUCK","CITY":"Newark","STATE":"NJ","FIPS":"34","ZIP":"07114","ZIP2":null,"PARCEL":0,"LATITUDE":40.70765,"LONGITUDE":-74.15863,"GEOSOURCE":"GDT 2001 STREETS","CREATEDATE":"2003/04/09","CREATOR":"INDUS","MODDATE":null,"ASSOC":null},"coordinates":[9179,4802]},{"type":"Point","properties":{"ID":"1057","NAME":"CN LUMBER RELOAD","TYPE":"RAIL","MODE_TYPE":"RAIL & TRUCK","CITY":"CHICAGO","STATE":"IL","FIPS":"17","ZIP":"60632","ZIP2":null,"PARCEL":0,"LATITUDE":41.80063,"LONGITUDE":-87.71262,"GEOSOURCE":"GDT 2000 STREETS","CREATEDATE":"2003/04/09","CREATOR":"INDUS","MODDATE":null,"ASSOC":"CN"},"coordinates":[7816,5038]},{"type":"Point","properties":{"ID":"1058","NAME":"C.C. LOUNSBURY, INC.","TYPE":"RAIL","MODE_TYPE":"RAIL & TRUCK","CITY":"WILLIMANTIC","STATE":"CT","FIPS":"09","ZIP":"06226","ZIP2":null,"PARCEL":0,"LATITUDE":41.71731,"LONGITUDE":-72.24423,"GEOSOURCE":"GDT 2000 STREETS","CREATEDATE":"2003/04/09","CREATOR":"INDUS","MODDATE":null,"ASSOC":"CN"},"coordinates":[9371,5020]},{"type":"Point","properties":{"ID":"1059","NAME":"MOBILE MOVING AND STORAGE","TYPE":"RAIL","MODE_TYPE":"RAIL & TRUCK","CITY":"MOBILE","STATE":"AL","FIPS":"01","ZIP":"36652","ZIP2":null,"PARCEL":0,"LATITUDE":30.64814,"LONGITUDE":-88.07349,"GEOSOURCE":"GDT 2000 STREETS","CREATEDATE":"2003/04/09","CREATOR":"INDUS","MODDATE":null,"ASSOC":"CN"},"coordinates":[7780,2633]},{"type":"Point","properties":{"ID":"10593","NAME":"Emery Ocean Services-Newark-NJ","TYPE":"AIR","MODE_TYPE":"AIR & TRUCK","CITY":"Newark","STATE":"NJ","FIPS":"34","ZIP":"07114","ZIP2":null,"PARCEL":0,"LATITUDE":40.70765,"LONGITUDE":-74.15863,"GEOSOURCE":"GDT 2001 STREETS","CREATEDATE":"2003/04/09","CREATOR":"INDUS","MODDATE":null,"ASSOC":null},"coordinates":[9179,4802]},{"type":"Point","properties":{"ID":"106","NAME":"NS INDEPENDENT BULK TRANSFER TERMINAL-DETROIT-MI","TYPE":"RAIL","MODE_TYPE":"RAIL & TRUCK","CITY":"DETROIT","STATE":"MI","FIPS":"26","ZIP":"48209","ZIP2":null,"PARCEL":0,"LATITUDE":42.30566,"LONGITUDE":-83.09013,"GEOSOURCE":"GDT 2000 STREETS","CREATEDATE":"2003/04/09","CREATOR":"INDUS","MODDATE":null,"ASSOC":"NS"},"coordinates":[8281,5147]},{"type":"Point","properties":{"ID":"10604","NAME":"Emery Forwarding-Albuquerque-NM","TYPE":"AIR","MODE_TYPE":"AIR & TRUCK","CITY":"Albuquerque","STATE":"NM","FIPS":"35","ZIP":"87106","ZIP2":null,"PARCEL":0,"LATITUDE":35.05454,"LONGITUDE":-106.6198,"GEOSOURCE":"GDT 2001 STREETS","CREATEDATE":"2003/04/09","CREATOR":"INDUS","MODDATE":null,"ASSOC":null},"coordinates":[5915,3583]},{"type":"Point","properties":{"ID":"10605","NAME":"Emery Forwarding-Albany-NY","TYPE":"AIR","MODE_TYPE":"AIR & TRUCK","CITY":"Albany","STATE":"NY","FIPS":"36","ZIP":"12205","ZIP2":null,"PARCEL":0,"LATITUDE":42.72098,"LONGITUDE":-73.86516,"GEOSOURCE":"GDT 2001 STREETS","CREATEDATE":"2003/04/09","CREATOR":"INDUS","MODDATE":null,"ASSOC":null},"coordinates":[9208,5236]},{"type":"Point","properties":{"ID":"10607","NAME":"Emery Forwarding-Buffalo-NY","TYPE":"AIR","MODE_TYPE":"AIR & TRUCK","CITY":"Buffalo","STATE":"NY","FIPS":"36","ZIP":"14225","ZIP2":null,"PARCEL":0,"LATITUDE":42.93178,"LONGITUDE":-78.71435,"GEOSOURCE":"GDT 2001 STREETS","CREATEDATE":"2003/04/09","CREATOR":"INDUS","MODDATE":null,"ASSOC":null},"coordinates":[8721,5282]},{"type":"Point","properties":{"ID":"10608","NAME":"Emery Customs Brokers-Buffalo-NY","TYPE":"AIR","MODE_TYPE":"AIR & TRUCK","CITY":"Buffalo","STATE":"NY","FIPS":"36","ZIP":"14202","ZIP2":null,"PARCEL":0,"LATITUDE":42.88773,"LONGITUDE":-78.87737,"GEOSOURCE":"GDT 2001 STREETS","CREATEDATE":"2003/04/09","CREATOR":"INDUS","MODDATE":null,"ASSOC":null},"coordinates":[8704,5272]},{"type":"Point","properties":{"ID":"1061","NAME":"WAREHOUSING OF WISCONSIN-GREEN BAY-WI-2275 CENTU","TYPE":"RAIL","MODE_TYPE":"RAIL & TRUCK","CITY":"GREEN BAY","STATE":"WI","FIPS":"55","ZIP":"54307","ZIP2":null,"PARCEL":0,"LATITUDE":44.53425,"LONGITUDE":-88.08536,"GEOSOURCE":"GDT 2000 STREETS","CREATEDATE":"2003/04/09","CREATOR":"INDUS","MODDATE":null,"ASSOC":"CN"},"coordinates":[7778,5627]},{"type":"Point","properties":{"ID":"10616","NAME":"Emery Customs Brokers-Rochester-NY","TYPE":"AIR","MODE_TYPE":"AIR & TRUCK","CITY":"Rochester","STATE":"NY","FIPS":"36","ZIP":"14624","ZIP2":null,"PARCEL":0,"LATITUDE":43.12909,"LONGITUDE":-77.67294,"GEOSOURCE":"GDT 2001 STREETS","CREATEDATE":"2003/04/09","CREATOR":"INDUS","MODDATE":null,"ASSOC":null},"coordinates":[8825,5324]},{"type":"Point","properties":{"ID":"10617","NAME":"Emery Forwarding-Elmira-NY","TYPE":"AIR","MODE_TYPE":"AIR & TRUCK","CITY":"Elmira","STATE":"NY","FIPS":"36","ZIP":"14901","ZIP2":null,"PARCEL":0,"LATITUDE":42.114,"LONGITUDE":-76.81297,"GEOSOURCE":"GDT 2001 STREETS","CREATEDATE":"2003/04/09","CREATOR":"INDUS","MODDATE":null,"ASSOC":null},"coordinates":[8912,5105]},{"type":"Point","properties":{"ID":"1062","NAME":"WAREHOUSING OF WISCONSIN-GREEN BAY-WI-2330 LARSE","TYPE":"RAIL","MODE_TYPE":"RAIL & TRUCK","CITY":"GREEN BAY","STATE":"WI","FIPS":"55","ZIP":"54307","ZIP2":null,"PARCEL":0,"LATITUDE":44.53135,"LONGITUDE":-88.08765,"GEOSOURCE":"GDT 2000 STREETS","CREATEDATE":"2003/04/09","CREATOR":"INDUS","MODDATE":null,"ASSOC":"CN"},"coordinates":[7778,5627]},{"type":"Point","properties":{"ID":"1063","NAME":"B AND D WAREHOUSE","TYPE":"RAIL","MODE_TYPE":"RAIL & TRUCK","CITY":"GREEN BAY","STATE":"WI","FIPS":"55","ZIP":"54303","ZIP2":null,"PARCEL":0,"LATITUDE":44.53696,"LONGITUDE":-88.0815,"GEOSOURCE":"GDT 2000 STREETS","CREATEDATE":"2003/04/09","CREATOR":"INDUS","MODDATE":null,"ASSOC":"CN"},"coordinates":[7779,5628]},{"type":"Point","properties":{"ID":"1064","NAME":"RSD COMPANIES","TYPE":"RAIL","MODE_TYPE":"RAIL & TRUCK","CITY":"WHITE RIVER JCT","STATE":"VT","FIPS":"50","ZIP":"05001","ZIP2":null,"PARCEL":0,"LATITUDE":43.66168,"LONGITUDE":-72.35134,"GEOSOURCE":"GDT 2000 STREETS","CREATEDATE":"2003/04/09","CREATOR":"INDUS","MODDATE":null,"ASSOC":"CN"},"coordinates":[9361,5439]},{"type":"Point","properties":{"ID":"1065","NAME":"RED BANK DISTRIBUTION","TYPE":"RAIL","MODE_TYPE":"RAIL & TRUCK","CITY":"CINCINNATI","STATE":"OH","FIPS":"39","ZIP":"45227","ZIP2":null,"PARCEL":0,"LATITUDE":39.14795,"LONGITUDE":-84.40468,"GEOSOURCE":"GDT 2000 STREETS","CREATEDATE":"2003/04/09","CREATOR":"INDUS","MODDATE":null,"ASSOC":"CN"},"coordinates":[8148,4466]},{"type":"Point","properties":{"ID":"1066","NAME":"DEDICATED LOGISTICS INC","TYPE":"RAIL","MODE_TYPE":"RAIL & TRUCK","CITY":"ROSEVILLE","STATE":"MN","FIPS":"27","ZIP":"55113","ZIP2":null,"PARCEL":0,"LATITUDE":45.01591,"LONGITUDE":-93.20505,"GEOSOURCE":"GDT 2000 STREETS","CREATEDATE":"2003/04/09","CREATOR":"INDUS","MODDATE":null,"ASSOC":"CN"},"coordinates":[7263,5731]},{"type":"Point","properties":{"ID":"10666","NAME":"Emery Forwarding-Springfield Gardens-NY","TYPE":"AIR","MODE_TYPE":"AIR & TRUCK","CITY":"Springfield Gardens","STATE":"NY","FIPS":"36","ZIP":"11413","ZIP2":null,"PARCEL":0,"LATITUDE":40.65846,"LONGITUDE":-73.7637,"GEOSOURCE":"GDT 2001 STREETS","CREATEDATE":"2003/04/09","CREATOR":"INDUS","MODDATE":null,"ASSOC":null},"coordinates":[9218,4791]},{"type":"Point","properties":{"ID":"1067","NAME":"MURPHY WAREHOUSE COMPANY-FRIDLEY-MN-7033 CENTR","TYPE":"RAIL","MODE_TYPE":"RAIL & TRUCK","CITY":"FRIDLEY","STATE":"MN","FIPS":"27","ZIP":"55414","ZIP2":null,"PARCEL":0,"LATITUDE":44.98411,"LONGITUDE":-93.2572,"GEOSOURCE":"GDT 2000 STREETS","CREATEDATE":"2003/04/09","CREATOR":"INDUS","MODDATE":null,"ASSOC":"CN"},"coordinates":[7258,5724]},{"type":"Point","properties":{"ID":"10672","NAME":"Emery Customs Brokers-Springfield Gardens-NY","TYPE":"AIR","MODE_TYPE":"AIR & TRUCK","CITY":"Springfield Gardens","STATE":"NY","FIPS":"36","ZIP":"11413","ZIP2":null,"PARCEL":0,"LATITUDE":40.65846,"LONGITUDE":-73.7637,"GEOSOURCE":"GDT 2001 STREETS","CREATEDATE":"2003/04/09","CREATOR":"INDUS","MODDATE":null,"ASSOC":null},"coordinates":[9218,4791]},{"type":"Point","properties":{"ID":"1068","NAME":"BENHKE INC","TYPE":"RAIL","MODE_TYPE":"RAIL & TRUCK","CITY":"BATTLE CREEK","STATE":"MI","FIPS":"26","ZIP":"49016","ZIP2":"2102","PARCEL":0,"LATITUDE":42.31686,"LONGITUDE":-85.16711,"GEOSOURCE":"GDT 2000 STREETS","CREATEDATE":"2003/04/09","CREATOR":"INDUS","MODDATE":null,"ASSOC":"CN"},"coordinates":[8072,5149]},{"type":"Point","properties":{"ID":"1069","NAME":"NEW ENGLAND PUBLIC WAREHOUSE-SOUTH PARIS-ME","TYPE":"RAIL","MODE_TYPE":"RAIL & TRUCK","CITY":"SOUTH PARIS","STATE":"ME","FIPS":"23","ZIP":"04281","ZIP2":null,"PARCEL":0,"LATITUDE":44.22392,"LONGITUDE":-70.51301,"GEOSOURCE":"GDT 2000 STREETS","CREATEDATE":"2003/04/09","CREATOR":"INDUS","MODDATE":null,"ASSOC":"CN"},"coordinates":[9545,5560]},{"type":"Point","properties":{"ID":"107","NAME":"THE FOODS CORPORATION-WEST BLOOMFIELD-MI","TYPE":"RAIL","MODE_TYPE":"RAIL & TRUCK","CITY":"WEST BLOOMFIELD","STATE":"MI","FIPS":"26","ZIP":"48322","ZIP2":null,"PARCEL":0,"LATITUDE":42.54255,"LONGITUDE":-83.36224,"GEOSOURCE":"GDT 2000 STREETS","CREATEDATE":"2003/04/09","CREATOR":"INDUS","MODDATE":null,"ASSOC":"NS"},"coordinates":[8253,5198]},{"type":"Point","properties":{"ID":"1070","NAME":"NEW ENGLAND PUBLIC WAREHOUSE-MECHANIC FALLS-ME","TYPE":"RAIL","MODE_TYPE":"RAIL & TRUCK","CITY":"MECHANIC FALLS","STATE":"ME","FIPS":"23","ZIP":"04256","ZIP2":null,"PARCEL":0,"LATITUDE":44.11003,"LONGITUDE":-70.38341,"GEOSOURCE":"GDT 2000 STREETS","CREATEDATE":"2003/04/09","CREATOR":"INDUS","MODDATE":null,"ASSOC":"CN"},"coordinates":[9558,5536]},{"type":"Point","properties":{"ID":"1071","NAME":"WAGNER MOVING AND STORAGE INC.","TYPE":"RAIL","MODE_TYPE":"RAIL & TRUCK","CITY":"PADUCAH","STATE":"KY","FIPS":"21","ZIP":null,"ZIP2":null,"PARCEL":0,"LATITUDE":37.09705,"LONGITUDE":-88.62447,"GEOSOURCE":"GDT 2000 STREETS","CREATEDATE":"2003/04/09","CREATOR":"INDUS","MODDATE":null,"ASSOC":"CN"},"coordinates":[7724,4024]},{"type":"Point","properties":{"ID":"10712","NAME":"Emery Forwarding-Rochester-NY","TYPE":"AIR","MODE_TYPE":"AIR & TRUCK","CITY":"Rochester","STATE":"NY","FIPS":"36","ZIP":"14624","ZIP2":null,"PARCEL":0,"LATITUDE":43.12909,"LONGITUDE":-77.67294,"GEOSOURCE":"GDT 2001 STREETS","CREATEDATE":"2003/04/09","CREATOR":"INDUS","MODDATE":null,"ASSOC":null},"coordinates":[8825,5324]},{"type":"Point","properties":{"ID":"10714","NAME":"Emery Forwarding-North Syracuse-NY","TYPE":"AIR","MODE_TYPE":"AIR & TRUCK","CITY":"North Syracuse","STATE":"NY","FIPS":"36","ZIP":"13212","ZIP2":null,"PARCEL":0,"LATITUDE":43.13097,"LONGITUDE":-76.08339,"GEOSOURCE":"GDT 2001 STREETS","CREATEDATE":"2003/04/09","CREATOR":"INDUS","MODDATE":null,"ASSOC":null},"coordinates":[8985,5325]},{"type":"Point","properties":{"ID":"1072","NAME":"CRYSTAL DISTRIBUTION SERVICES, INC.","TYPE":"RAIL","MODE_TYPE":"RAIL & TRUCK","CITY":"WATERLOO","STATE":"IA","FIPS":"19","ZIP":"50704","ZIP2":null,"PARCEL":0,"LATITUDE":42.49156,"LONGITUDE":-92.32162,"GEOSOURCE":"GDT 2000 STREETS","CREATEDATE":"2003/04/09","CREATOR":"INDUS","MODDATE":null,"ASSOC":"CN"},"coordinates":[7352,5187]},{"type":"Point","properties":{"ID":"1073","NAME":"CEDAR RAPIDS WAREHOUSE AND TRANSFER","TYPE":"RAIL","MODE_TYPE":"RAIL & TRUCK","CITY":"CEDAR RAPIDS","STATE":"IA","FIPS":"19","ZIP":"52404","ZIP2":null,"PARCEL":0,"LATITUDE":41.96535,"LONGITUDE":-91.68128,"GEOSOURCE":"GDT 2000 STREETS","CREATEDATE":"2003/04/09","CREATOR":"INDUS","MODDATE":null,"ASSOC":"CN"},"coordinates":[7417,5073]},{"type":"Point","properties":{"ID":"1074","NAME":"QUALITY CARRIERS","TYPE":"RAIL","MODE_TYPE":"RAIL & TRUCK","CITY":"APPLETON","STATE":"WI","FIPS":"55","ZIP":"54914","ZIP2":"4613","PARCEL":0,"LATITUDE":44.25682,"LONGITUDE":-88.43566,"GEOSOURCE":"GDT 2000 STREETS","CREATEDATE":"2003/04/09","CREATOR":"INDUS","MODDATE":null,"ASSOC":"CN"},"coordinates":[7743,5567]},{"type":"Point","properties":{"ID":"10748","NAME":"Emery Forwarding-Arden-NC","TYPE":"AIR","MODE_TYPE":"AIR & TRUCK","CITY":"Arden","STATE":"NC","FIPS":"37","ZIP":"28704","ZIP2":null,"PARCEL":0,"LATITUDE":35.4613,"LONGITUDE":-82.51439,"GEOSOURCE":"GDT 2001 STREETS","CREATEDATE":"2003/04/09","CREATOR":"INDUS","MODDATE":null,"ASSOC":null},"coordinates":[8339,3671]},{"type":"Point","properties":{"ID":"10755","NAME":"Emery Forwarding-Charlotte-NC","TYPE":"AIR","MODE_TYPE":"AIR & TRUCK","CITY":"Charlotte","STATE":"NC","FIPS":"37","ZIP":"28208","ZIP2":null,"PARCEL":0,"LATITUDE":35.19639,"LONGITUDE":-80.93556,"GEOSOURCE":"GDT 2001 STREETS","CREATEDATE":"2003/04/09","CREATOR":"INDUS","MODDATE":null,"ASSOC":null},"coordinates":[8497,3614]},{"type":"Point","properties":{"ID":"10758","NAME":"Emery Customs Brokers-Charlotte-NC","TYPE":"AIR","MODE_TYPE":"AIR & TRUCK","CITY":"Charlotte","STATE":"NC","FIPS":"37","ZIP":"28208","ZIP2":null,"PARCEL":0,"LATITUDE":35.19639,"LONGITUDE":-80.93556,"GEOSOURCE":"GDT 2001 STREETS","CREATEDATE":"2003/04/09","CREATOR":"INDUS","MODDATE":null,"ASSOC":null},"coordinates":[8497,3614]},{"type":"Point","properties":{"ID":"1076","NAME":"CN MEMPHIS DISTRIBUTION CENTER","TYPE":"RAIL","MODE_TYPE":"RAIL & TRUCK","CITY":"MEMPHIS","STATE":"TN","FIPS":"47","ZIP":"38109","ZIP2":"2408","PARCEL":0,"LATITUDE":35.08594,"LONGITUDE":-90.07689,"GEOSOURCE":"GDT 2000 STREETS","CREATEDATE":"2003/04/09","CREATOR":"INDUS","MODDATE":null,"ASSOC":"CN"},"coordinates":[7578,3590]},{"type":"Point","properties":{"ID":"10760","NAME":"Menlo Worldwide Expedite!-Charlotte-NC","TYPE":"AIR","MODE_TYPE":"AIR & TRUCK","CITY":"Charlotte","STATE":"NC","FIPS":"37","ZIP":"28219","ZIP2":null,"PARCEL":0,"LATITUDE":35.19639,"LONGITUDE":-80.93556,"GEOSOURCE":"GDT 2001 STREETS","CREATEDATE":"2003/04/09","CREATOR":"INDUS","MODDATE":null,"ASSOC":null},"coordinates":[8497,3614]},{"type":"Point","properties":{"ID":"10761","NAME":"Emery Forwarding-Greensboro-NC","TYPE":"AIR","MODE_TYPE":"AIR & TRUCK","CITY":"Greensboro","STATE":"NC","FIPS":"37","ZIP":"27425","ZIP2":null,"PARCEL":0,"LATITUDE":36.11814,"LONGITUDE":-79.93262,"GEOSOURCE":"GDT 2001 STREETS","CREATEDATE":"2003/04/09","CREATOR":"INDUS","MODDATE":null,"ASSOC":null},"coordinates":[8598,3812]},{"type":"Point","properties":{"ID":"10763","NAME":"ECB c/o Norman G. Jensen, Inc.-Pembina-ND","TYPE":"AIR","MODE_TYPE":"AIR & TRUCK","CITY":"Pembina","STATE":"ND","FIPS":"38","ZIP":"58271","ZIP2":null,"PARCEL":0,"LATITUDE":48.96691,"LONGITUDE":-97.24516,"GEOSOURCE":"GDT 2001 STREETS","CREATEDATE":"2003/04/09","CREATOR":"INDUS","MODDATE":null,"ASSOC":null},"coordinates":[6857,6583]},{"type":"Point","properties":{"ID":"10764","NAME":"ECB c/o Norman G. Jensen, Inc.-Portal-ND","TYPE":"AIR","MODE_TYPE":"AIR & TRUCK","CITY":"Portal","STATE":"ND","FIPS":"38","ZIP":"58772","ZIP2":null,"PARCEL":0,"LATITUDE":48.99437,"LONGITUDE":-102.54526,"GEOSOURCE":"GDT 2001 STREETS","CREATEDATE":"2003/04/09","CREATOR":"INDUS","MODDATE":null,"ASSOC":null},"coordinates":[6324,6589]},{"type":"Point","properties":{"ID":"1077","NAME":"FALCO LIME, INC.","TYPE":"RAIL","MODE_TYPE":"RAIL & TRUCK","CITY":"VICKSBURG","STATE":"MS","FIPS":"28","ZIP":"39180","ZIP2":null,"PARCEL":0,"LATITUDE":32.39141,"LONGITUDE":-90.88601,"GEOSOURCE":"GDT 2000 STREETS","CREATEDATE":"2003/04/09","CREATOR":"INDUS","MODDATE":null,"ASSOC":"CN"},"coordinates":[7497,3009]},{"type":"Point","properties":{"ID":"1078","NAME":"SUPERIOR PRODUCT TRANSFER SOLUTIONS","TYPE":"RAIL","MODE_TYPE":"RAIL & TRUCK","CITY":"WARREN","STATE":"MI","FIPS":"26","ZIP":"48089","ZIP2":null,"PARCEL":0,"LATITUDE":42.45603,"LONGITUDE":-83.00399,"GEOSOURCE":"GDT 2000 STREETS","CREATEDATE":"2003/04/09","CREATOR":"INDUS","MODDATE":null,"ASSOC":"CN"},"coordinates":[8289,5179]},{"type":"Point","properties":{"ID":"1079","NAME":"ARROW TERMINALS LP","TYPE":"RAIL","MODE_TYPE":"RAIL & TRUCK","CITY":"BATTLE CREEK","STATE":"MI","FIPS":"26","ZIP":"49014","ZIP2":null,"PARCEL":0,"LATITUDE":42.32329,"LONGITUDE":-85.14572,"GEOSOURCE":"GDT 2000 STREETS","CREATEDATE":"2003/04/09","CREATOR":"INDUS","MODDATE":null,"ASSOC":"CN"},"coordinates":[8074,5151]},{"type":"Point","properties":{"ID":"10799","NAME":"Emery Customs Brokers-Middleburg Heights-OH","TYPE":"AIR","MODE_TYPE":"AIR & TRUCK","CITY":"Middleburg Heights","STATE":"OH","FIPS":"39","ZIP":"44130","ZIP2":null,"PARCEL":0,"LATITUDE":41.37908,"LONGITUDE":-81.82439,"GEOSOURCE":"GDT 2001 STREETS","CREATEDATE":"2003/04/09","CREATOR":"INDUS","MODDATE":null,"ASSOC":null},"coordinates":[8408,4947]},{"type":"Point","properties":{"ID":"108","NAME":"THE ANDERSON, INC.-ALBION-MI","TYPE":"RAIL","MODE_TYPE":"RAIL & TRUCK","CITY":"ALBION","STATE":"MI","FIPS":"26","ZIP":"49224","ZIP2":null,"PARCEL":0,"LATITUDE":42.26149,"LONGITUDE":-84.79166,"GEOSOURCE":"GDT 2000 STREETS","CREATEDATE":"2003/04/09","CREATOR":"INDUS","MODDATE":null,"ASSOC":"NS"},"coordinates":[8110,5137]},{"type":"Point","properties":{"ID":"1080","NAME":"TRANSPLASTICS/QUALITY CARRIERS","TYPE":"RAIL","MODE_TYPE":"RAIL & TRUCK","CITY":"PALMER","STATE":"MA","FIPS":"25","ZIP":"01069","ZIP2":null,"PARCEL":0,"LATITUDE":42.19885,"LONGITUDE":-72.34872,"GEOSOURCE":"GDT 2000 STREETS","CREATEDATE":"2003/04/09","CREATOR":"INDUS","MODDATE":null,"ASSOC":"CN"},"coordinates":[9361,5124]},{"type":"Point","properties":{"ID":"1082","NAME":"CANADIAN NATIONAL (CN)-AUBURN-ME","TYPE":"RAIL","MODE_TYPE":"RAIL & TRUCK","CITY":"AUBURN","STATE":"ME","FIPS":"23","ZIP":"04210","ZIP2":null,"PARCEL":0,"LATITUDE":44.07191,"LONGITUDE":-70.2491,"GEOSOURCE":"GDT 2000 STREETS","CREATEDATE":"2003/04/09","CREATOR":"INDUS","MODDATE":null,"ASSOC":"CN"},"coordinates":[9572,5528]},{"type":"Point","properties":{"ID":"1083","NAME":"PORT MANCHAC DISTRIBUTION CENTER","TYPE":"RAIL","MODE_TYPE":"RAIL & TRUCK","CITY":"PONCHATOULA","STATE":"LA","FIPS":"22","ZIP":"70454","ZIP2":null,"PARCEL":0,"LATITUDE":30.43979,"LONGITUDE":-90.44288,"GEOSOURCE":"GDT 2000 STREETS","CREATEDATE":"2003/04/09","CREATOR":"INDUS","MODDATE":null,"ASSOC":"CN"},"coordinates":[7541,2588]},{"type":"Point","properties":{"ID":"10839","NAME":"Emery Ocean Services-Middleburg Heights-OH","TYPE":"AIR","MODE_TYPE":"AIR & TRUCK","CITY":"Middleburg Heights","STATE":"OH","FIPS":"39","ZIP":"44130","ZIP2":null,"PARCEL":0,"LATITUDE":41.37908,"LONGITUDE":-81.82439,"GEOSOURCE":"GDT 2001 STREETS","CREATEDATE":"2003/04/09","CREATOR":"INDUS","MODDATE":null,"ASSOC":null},"coordinates":[8408,4947]},{"type":"Point","properties":{"ID":"10843","NAME":"Emery Forwarding-Lewis Center-OH","TYPE":"AIR","MODE_TYPE":"AIR & TRUCK","CITY":"Lewis Center","STATE":"OH","FIPS":"39","ZIP":"43035","ZIP2":null,"PARCEL":0,"LATITUDE":40.157,"LONGITUDE":-83.01063,"GEOSOURCE":"GDT 2001 STREETS","CREATEDATE":"2003/04/09","CREATOR":"INDUS","MODDATE":null,"ASSOC":null},"coordinates":[8289,4683]},{"type":"Point","properties":{"ID":"10845","NAME":"Emery Customs Brokers-Lewis Center-OH","TYPE":"AIR","MODE_TYPE":"AIR & TRUCK","CITY":"Lewis Center","STATE":"OH","FIPS":"39","ZIP":"43035","ZIP2":null,"PARCEL":0,"LATITUDE":40.157,"LONGITUDE":-83.01063,"GEOSOURCE":"GDT 2001 STREETS","CREATEDATE":"2003/04/09","CREATOR":"INDUS","MODDATE":null,"ASSOC":null},"coordinates":[8289,4683]},{"type":"Point","properties":{"ID":"10848","NAME":"Emery Forwarding-Vandalia-OH","TYPE":"AIR","MODE_TYPE":"AIR & TRUCK","CITY":"Vandalia","STATE":"OH","FIPS":"39","ZIP":"45377","ZIP2":null,"PARCEL":0,"LATITUDE":39.89836,"LONGITUDE":-84.22643,"GEOSOURCE":"GDT 2001 STREETS","CREATEDATE":"2003/04/09","CREATOR":"INDUS","MODDATE":null,"ASSOC":null},"coordinates":[8166,4628]},{"type":"Point","properties":{"ID":"1085","NAME":"OHIO VALLEY RELOAD","TYPE":"RAIL","MODE_TYPE":"RAIL & TRUCK","CITY":"MILLWOOD","STATE":"KY","FIPS":"21","ZIP":"42762","ZIP2":"9098","PARCEL":0,"LATITUDE":37.45029,"LONGITUDE":-86.38911,"GEOSOURCE":"GDT 2000 STREETS","CREATEDATE":"2003/04/09","CREATOR":"INDUS","MODDATE":null,"ASSOC":"CN"},"coordinates":[7949,4100]},{"type":"Point","properties":{"ID":"1086","NAME":"PREMIER BULK DISTRIBUTION","TYPE":"RAIL","MODE_TYPE":"RAIL & TRUCK","CITY":"HARVEY","STATE":"IL","FIPS":"17","ZIP":"60425","ZIP2":null,"PARCEL":0,"LATITUDE":41.54691,"LONGITUDE":-87.60146,"GEOSOURCE":"GDT 2000 STREETS","CREATEDATE":"2003/04/09","CREATOR":"INDUS","MODDATE":null,"ASSOC":"CN"},"coordinates":[7827,4983]},{"type":"Point","properties":{"ID":"10863","NAME":"Menlo Worldwide Logistics-Vandalia-OH","TYPE":"AIR","MODE_TYPE":"AIR & TRUCK","CITY":"Vandalia","STATE":"OH","FIPS":"39","ZIP":"45377","ZIP2":null,"PARCEL":0,"LATITUDE":39.91254,"LONGITUDE":-84.22405,"GEOSOURCE":"GDT 2001 STREETS","CREATEDATE":"2003/04/09","CREATOR":"INDUS","MODDATE":null,"ASSOC":null},"coordinates":[8167,4631]},{"type":"Point","properties":{"ID":"10864","NAME":"Emery Forwarding-Toledo-OH","TYPE":"AIR","MODE_TYPE":"AIR & TRUCK","CITY":"Toledo","STATE":"OH","FIPS":"39","ZIP":"43615","ZIP2":null,"PARCEL":0,"LATITUDE":41.62387,"LONGITUDE":-83.68042,"GEOSOURCE":"GDT 2001 STREETS","CREATEDATE":"2003/04/09","CREATOR":"INDUS","MODDATE":null,"ASSOC":null},"coordinates":[8221,5000]},{"type":"Point","properties":{"ID":"10865","NAME":"Emery Forwarding-Oklahoma City-OK","TYPE":"AIR","MODE_TYPE":"AIR & TRUCK","CITY":"Oklahoma City","STATE":"OK","FIPS":"40","ZIP":"73159","ZIP2":null,"PARCEL":0,"LATITUDE":35.40638,"LONGITUDE":-97.59478,"GEOSOURCE":"GDT 2001 STREETS","CREATEDATE":"2003/04/09","CREATOR":"INDUS","MODDATE":null,"ASSOC":null},"coordinates":[6822,3659]},{"type":"Point","properties":{"ID":"10868","NAME":"Emery Forwarding-Portland-OR","TYPE":"AIR","MODE_TYPE":"AIR & TRUCK","CITY":"Portland","STATE":"OR","FIPS":"41","ZIP":"97218","ZIP2":null,"PARCEL":0,"LATITUDE":45.58175,"LONGITUDE":-122.60819,"GEOSOURCE":"GDT 2001 STREETS","CREATEDATE":"2003/04/09","CREATOR":"INDUS","MODDATE":null,"ASSOC":null},"coordinates":[4307,5853]},{"type":"Point","properties":{"ID":"10869","NAME":"Emery Customs Brokers-Portland-OR","TYPE":"AIR","MODE_TYPE":"AIR & TRUCK","CITY":"Portland","STATE":"OR","FIPS":"41","ZIP":"97218","ZIP2":null,"PARCEL":0,"LATITUDE":45.58175,"LONGITUDE":-122.60819,"GEOSOURCE":"GDT 2001 STREETS","CREATEDATE":"2003/04/09","CREATOR":"INDUS","MODDATE":null,"ASSOC":null},"coordinates":[4307,5853]},{"type":"Point","properties":{"ID":"1087","NAME":"CARGOFLO RAILPORT","TYPE":"RAIL","MODE_TYPE":"RAIL & TRUCK","CITY":"CHICAGO","STATE":"IL","FIPS":"17","ZIP":"60609","ZIP2":null,"PARCEL":0,"LATITUDE":41.81577,"LONGITUDE":-87.6771,"GEOSOURCE":"GDT 2000 STREETS","CREATEDATE":"2003/04/09","CREATOR":"INDUS","MODDATE":null,"ASSOC":"CN"},"coordinates":[7819,5041]},{"type":"Point","properties":{"ID":"10870","NAME":"Emery Forwarding-Breinigsville-PA","TYPE":"AIR","MODE_TYPE":"AIR & TRUCK","CITY":"Breinigsville","STATE":"PA","FIPS":"42","ZIP":"18031","ZIP2":null,"PARCEL":0,"LATITUDE":40.57536,"LONGITUDE":-75.6308,"GEOSOURCE":"GDT 2001 STREETS","CREATEDATE":"2003/04/09","CREATOR":"INDUS","MODDATE":null,"ASSOC":null},"coordinates":[9031,4774]},{"type":"Point","properties":{"ID":"10871","NAME":"Emery Forwarding-Erie-PA","TYPE":"AIR","MODE_TYPE":"AIR & TRUCK","CITY":"Erie","STATE":"PA","FIPS":"42","ZIP":"16509","ZIP2":null,"PARCEL":0,"LATITUDE":42.09897,"LONGITUDE":-80.01535,"GEOSOURCE":"GDT 2001 STREETS","CREATEDATE":"2003/04/09","CREATOR":"INDUS","MODDATE":null,"ASSOC":null},"coordinates":[8590,5102]},{"type":"Point","properties":{"ID":"10872","NAME":"Emery Forwarding-Middletown-PA","TYPE":"AIR","MODE_TYPE":"AIR & TRUCK","CITY":"Middletown","STATE":"PA","FIPS":"42","ZIP":"17057","ZIP2":null,"PARCEL":0,"LATITUDE":40.19911,"LONGITUDE":-76.76943,"GEOSOURCE":"GDT 2001 STREETS","CREATEDATE":"2003/04/09","CREATOR":"INDUS","MODDATE":null,"ASSOC":null},"coordinates":[8916,4692]},{"type":"Point","properties":{"ID":"10873","NAME":"Emery Forwarding-Ridley Park-PA","TYPE":"AIR","MODE_TYPE":"AIR & TRUCK","CITY":"Ridley Park","STATE":"PA","FIPS":"42","ZIP":"19078","ZIP2":null,"PARCEL":0,"LATITUDE":39.86339,"LONGITUDE":-75.32428,"GEOSOURCE":"GDT 2001 STREETS","CREATEDATE":"2003/04/09","CREATOR":"INDUS","MODDATE":null,"ASSOC":null},"coordinates":[9062,4620]},{"type":"Point","properties":{"ID":"10874","NAME":"Emery Forwarding-Moon Township-PA","TYPE":"AIR","MODE_TYPE":"AIR & TRUCK","CITY":"Moon Township","STATE":"PA","FIPS":"42","ZIP":"15108","ZIP2":null,"PARCEL":0,"LATITUDE":40.5126,"LONGITUDE":-80.2336,"GEOSOURCE":"GDT 2001 STREETS","CREATEDATE":"2003/04/09","CREATOR":"INDUS","MODDATE":null,"ASSOC":null},"coordinates":[8568,4760]},{"type":"Point","properties":{"ID":"10875","NAME":"Emery Customs Brokers-Moon Township-PA","TYPE":"AIR","MODE_TYPE":"AIR & TRUCK","CITY":"Moon Township","STATE":"PA","FIPS":"42","ZIP":"15108","ZIP2":null,"PARCEL":0,"LATITUDE":40.5126,"LONGITUDE":-80.2336,"GEOSOURCE":"GDT 2001 STREETS","CREATEDATE":"2003/04/09","CREATOR":"INDUS","MODDATE":null,"ASSOC":null},"coordinates":[8568,4760]},{"type":"Point","properties":{"ID":"10876","NAME":"Emery Forwarding-Warwick-RI","TYPE":"AIR","MODE_TYPE":"AIR & TRUCK","CITY":"Warwick","STATE":"RI","FIPS":"44","ZIP":"02888","ZIP2":null,"PARCEL":0,"LATITUDE":41.73357,"LONGITUDE":-71.42293,"GEOSOURCE":"GDT 2001 STREETS","CREATEDATE":"2003/04/09","CREATOR":"INDUS","MODDATE":null,"ASSOC":null},"coordinates":[9454,5023]},{"type":"Point","properties":{"ID":"10877","NAME":"Emery Forwarding-Ladson-SC","TYPE":"AIR","MODE_TYPE":"AIR & TRUCK","CITY":"Ladson","STATE":"SC","FIPS":"45","ZIP":"29456","ZIP2":null,"PARCEL":0,"LATITUDE":32.978,"LONGITUDE":-80.1141,"GEOSOURCE":"GDT 2001 STREETS","CREATEDATE":"2003/04/09","CREATOR":"INDUS","MODDATE":null,"ASSOC":null},"coordinates":[8580,3135]},{"type":"Point","properties":{"ID":"10878","NAME":"Emery Customs Brokers-Ladson-SC","TYPE":"AIR","MODE_TYPE":"AIR & TRUCK","CITY":"Ladson","STATE":"SC","FIPS":"45","ZIP":"29456","ZIP2":null,"PARCEL":0,"LATITUDE":32.978,"LONGITUDE":-80.1141,"GEOSOURCE":"GDT 2001 STREETS","CREATEDATE":"2003/04/09","CREATOR":"INDUS","MODDATE":null,"ASSOC":null},"coordinates":[8580,3135]},{"type":"Point","properties":{"ID":"10879","NAME":"Emery Ocean Services-Ladson-SC","TYPE":"AIR","MODE_TYPE":"AIR & TRUCK","CITY":"Ladson","STATE":"SC","FIPS":"45","ZIP":"29456","ZIP2":null,"PARCEL":0,"LATITUDE":32.978,"LONGITUDE":-80.1141,"GEOSOURCE":"GDT 2001 STREETS","CREATEDATE":"2003/04/09","CREATOR":"INDUS","MODDATE":null,"ASSOC":null},"coordinates":[8580,3135]},{"type":"Point","properties":{"ID":"1088","NAME":"CARGOFLO HARVEY ILLINOIS","TYPE":"TRUCK","MODE_TYPE":"RAIL & TRUCK","CITY":"HARVEY","STATE":"IL","FIPS":"17","ZIP":"60426","ZIP2":null,"PARCEL":0,"LATITUDE":41.58546,"LONGITUDE":-87.64623,"GEOSOURCE":"GDT 2000 STREETS","CREATEDATE":"2003/04/09","CREATOR":"INDUS","MODDATE":null,"ASSOC":"CN"},"coordinates":[7822,4991]},{"type":"Point","properties":{"ID":"10880","NAME":"Emery Forwarding-West Columbia-SC","TYPE":"AIR","MODE_TYPE":"AIR & TRUCK","CITY":"West Columbia","STATE":"SC","FIPS":"45","ZIP":"29170","ZIP2":null,"PARCEL":0,"LATITUDE":33.94928,"LONGITUDE":-81.13432,"GEOSOURCE":"GDT 2001 STREETS","CREATEDATE":"2003/04/09","CREATOR":"INDUS","MODDATE":null,"ASSOC":null},"coordinates":[8477,3345]},{"type":"Point","properties":{"ID":"10882","NAME":"Emery Customs Brokers-Memphis-TN","TYPE":"AIR","MODE_TYPE":"AIR & TRUCK","CITY":"Memphis","STATE":"TN","FIPS":"47","ZIP":"38132","ZIP2":null,"PARCEL":0,"LATITUDE":35.06995,"LONGITUDE":-90.01133,"GEOSOURCE":"GDT 2001 STREETS","CREATEDATE":"2003/04/09","CREATOR":"INDUS","MODDATE":null,"ASSOC":null},"coordinates":[7585,3586]},{"type":"Point","properties":{"ID":"1089","NAME":"TQW WAREHOUSE","TYPE":"TRUCK","MODE_TYPE":"RAIL & TRUCK","CITY":"EFFINGHAM","STATE":"IL","FIPS":"17","ZIP":"62401","ZIP2":"4266","PARCEL":0,"LATITUDE":39.0904,"LONGITUDE":-88.5428,"GEOSOURCE":"GDT 2000 STREETS","CREATEDATE":"2003/04/09","CREATOR":"INDUS","MODDATE":null,"ASSOC":"CN"},"coordinates":[7732,4453]},{"type":"Point","properties":{"ID":"10891","NAME":"Emery Forwarding-Alcoa-TN","TYPE":"AIR","MODE_TYPE":"AIR & TRUCK","CITY":"Alcoa","STATE":"TN","FIPS":"47","ZIP":"37701","ZIP2":null,"PARCEL":0,"LATITUDE":35.83202,"LONGITUDE":-83.973,"GEOSOURCE":"GDT 2001 STREETS","CREATEDATE":"2003/04/09","CREATOR":"INDUS","MODDATE":null,"ASSOC":null},"coordinates":[8192,3751]},{"type":"Point","properties":{"ID":"10897","NAME":"Emery Forwarding-Memphis-TN","TYPE":"AIR","MODE_TYPE":"AIR & TRUCK","CITY":"Memphis","STATE":"TN","FIPS":"47","ZIP":"38132","ZIP2":null,"PARCEL":0,"LATITUDE":35.06995,"LONGITUDE":-90.01133,"GEOSOURCE":"GDT 2001 STREETS","CREATEDATE":"2003/04/09","CREATOR":"INDUS","MODDATE":null,"ASSOC":null},"coordinates":[7585,3586]},{"type":"Point","properties":{"ID":"1090","NAME":"CN-EAST ST. LOUIS-IL","TYPE":"RAIL","MODE_TYPE":"RAIL & TRUCK","CITY":"EAST ST. LOUIS","STATE":"IL","FIPS":"17","ZIP":"62201","ZIP2":"2297","PARCEL":0,"LATITUDE":38.64225,"LONGITUDE":-90.10674,"GEOSOURCE":"GDT 2000 STREETS","CREATEDATE":"2003/04/09","CREATOR":"INDUS","MODDATE":null,"ASSOC":"CSXI"},"coordinates":[7575,4357]},{"type":"Point","properties":{"ID":"10901","NAME":"Emery Forwarding-Nashville-TN","TYPE":"AIR","MODE_TYPE":"AIR & TRUCK","CITY":"Nashville","STATE":"TN","FIPS":"47","ZIP":"37217","ZIP2":null,"PARCEL":0,"LATITUDE":36.11856,"LONGITUDE":-86.68965,"GEOSOURCE":"GDT 2001 STREETS","CREATEDATE":"2003/04/09","CREATOR":"INDUS","MODDATE":null,"ASSOC":null},"coordinates":[7919,3812]},{"type":"Point","properties":{"ID":"10902","NAME":"Emery Forwarding-Blountville-Tn","TYPE":"AIR","MODE_TYPE":"AIR & TRUCK","CITY":"Blountville","STATE":"TN","FIPS":"47","ZIP":"37617","ZIP2":null,"PARCEL":0,"LATITUDE":36.49112,"LONGITUDE":-82.41389,"GEOSOURCE":"GDT 2001 STREETS","CREATEDATE":"2003/04/09","CREATOR":"INDUS","MODDATE":null,"ASSOC":null},"coordinates":[8349,3893]},{"type":"Point","properties":{"ID":"1091","NAME":"CN-STEVENS POINT-WI","TYPE":"RAIL","MODE_TYPE":"RAIL & TRUCK","CITY":"STEVENS POINT","STATE":"WI","FIPS":"55","ZIP":"54481","ZIP2":null,"PARCEL":0,"LATITUDE":44.51372,"LONGITUDE":-89.56183,"GEOSOURCE":"GDT 2000 STREETS","CREATEDATE":"2003/04/09","CREATOR":"INDUS","MODDATE":null,"ASSOC":null},"coordinates":[7630,5623]},{"type":"Point","properties":{"ID":"10913","NAME":"Emery Forwarding-Brownsville-TX","TYPE":"AIR","MODE_TYPE":"AIR & TRUCK","CITY":"Brownsville","STATE":"TX","FIPS":"48","ZIP":"78520","ZIP2":null,"PARCEL":0,"LATITUDE":25.92604,"LONGITUDE":-97.4181,"GEOSOURCE":"GDT 2001 STREETS","CREATEDATE":"2003/04/09","CREATOR":"INDUS","MODDATE":null,"ASSOC":null},"coordinates":[6840,1615]},{"type":"Point","properties":{"ID":"10914","NAME":"Emery Customs Brokers-Pharr-TX","TYPE":"AIR","MODE_TYPE":"AIR & TRUCK","CITY":"Pharr","STATE":"TX","FIPS":"48","ZIP":"78577","ZIP2":null,"PARCEL":0,"LATITUDE":26.06955,"LONGITUDE":-98.20471,"GEOSOURCE":"GDT 2001 STREETS","CREATEDATE":"2003/04/09","CREATOR":"INDUS","MODDATE":null,"ASSOC":null},"coordinates":[6761,1645]},{"type":"Point","properties":{"ID":"1092","NAME":"CN-NEENAH-WI","TYPE":"RAIL","MODE_TYPE":"RAIL & TRUCK","CITY":"NEENAH","STATE":"WI","FIPS":"55","ZIP":"54956","ZIP2":null,"PARCEL":0,"LATITUDE":44.17821,"LONGITUDE":-88.46808,"GEOSOURCE":"GDT 2000 STREETS","CREATEDATE":"2003/04/09","CREATOR":"INDUS","MODDATE":null,"ASSOC":null},"coordinates":[7740,5551]},{"type":"Point","properties":{"ID":"1093","NAME":"CN-GREEN BAY-WI","TYPE":"RAIL","MODE_TYPE":"RAIL & TRUCK","CITY":"GREEN BAY","STATE":"WI","FIPS":"55","ZIP":"54304","ZIP2":null,"PARCEL":0,"LATITUDE":44.50622,"LONGITUDE":-88.02821,"GEOSOURCE":"GDT 2000 STREETS","CREATEDATE":"2003/04/09","CREATOR":"INDUS","MODDATE":null,"ASSOC":null},"coordinates":[7784,5621]},{"type":"Point","properties":{"ID":"10932","NAME":"Emery Ocean Services-Houston-TX","TYPE":"AIR","MODE_TYPE":"AIR & TRUCK","CITY":"Houston","STATE":"TX","FIPS":"48","ZIP":"77032","ZIP2":null,"PARCEL":0,"LATITUDE":29.9481,"LONGITUDE":-95.34581,"GEOSOURCE":"GDT 2001 STREETS","CREATEDATE":"2003/04/09","CREATOR":"INDUS","MODDATE":null,"ASSOC":null},"coordinates":[7048,2482]},{"type":"Point","properties":{"ID":"10934","NAME":"Emery Forwarding-Laredo-TX","TYPE":"AIR","MODE_TYPE":"AIR & TRUCK","CITY":"Laredo","STATE":"TX","FIPS":"48","ZIP":"78041","ZIP2":null,"PARCEL":0,"LATITUDE":27.5333,"LONGITUDE":-99.46609,"GEOSOURCE":"GDT 2001 STREETS","CREATEDATE":"2003/04/09","CREATOR":"INDUS","MODDATE":null,"ASSOC":null},"coordinates":[6634,1961]},{"type":"Point","properties":{"ID":"10935","NAME":"Emery Customs Brokers-Laredo-TX","TYPE":"AIR","MODE_TYPE":"AIR & TRUCK","CITY":"Laredo","STATE":"TX","FIPS":"48","ZIP":"78041","ZIP2":null,"PARCEL":0,"LATITUDE":27.5333,"LONGITUDE":-99.46609,"GEOSOURCE":"GDT 2001 STREETS","CREATEDATE":"2003/04/09","CREATOR":"INDUS","MODDATE":null,"ASSOC":null},"coordinates":[6634,1961]},{"type":"Point","properties":{"ID":"10938","NAME":"Emery Forwarding-San Antonio-TX","TYPE":"AIR","MODE_TYPE":"AIR & TRUCK","CITY":"San Antonio","STATE":"TX","FIPS":"48","ZIP":"78247","ZIP2":null,"PARCEL":0,"LATITUDE":29.54696,"LONGITUDE":-98.45764,"GEOSOURCE":"GDT 2001 STREETS","CREATEDATE":"2003/04/09","CREATOR":"INDUS","MODDATE":null,"ASSOC":null},"coordinates":[6735,2395]},{"type":"Point","properties":{"ID":"1094","NAME":"CN-CHICAGO-IL-WC","TYPE":"RAIL","MODE_TYPE":"RAIL & TRUCK","CITY":"HARVEY","STATE":"IL","FIPS":"17","ZIP":"60426","ZIP2":null,"PARCEL":0,"LATITUDE":41.58455,"LONGITUDE":-87.64621,"GEOSOURCE":"GDT 2000 STREETS","CREATEDATE":"2003/04/09","CREATOR":"INDUS","MODDATE":null,"ASSOC":null},"coordinates":[7822,4991]},{"type":"Point","properties":{"ID":"10940","NAME":"Emery Customs Brokers-San Antonio-TX","TYPE":"AIR","MODE_TYPE":"AIR & TRUCK","CITY":"San Antonio","STATE":"TX","FIPS":"48","ZIP":"78217","ZIP2":null,"PARCEL":0,"LATITUDE":29.51627,"LONGITUDE":-98.42287,"GEOSOURCE":"GDT 2001 STREETS","CREATEDATE":"2003/04/09","CREATOR":"INDUS","MODDATE":null,"ASSOC":null},"coordinates":[6739,2389]},{"type":"Point","properties":{"ID":"10945","NAME":"Emery Customs Brokers-Salt Lake City-UT","TYPE":"AIR","MODE_TYPE":"AIR & TRUCK","CITY":"Salt Lake City","STATE":"UT","FIPS":"49","ZIP":"84104","ZIP2":null,"PARCEL":0,"LATITUDE":40.72777,"LONGITUDE":-111.9898,"GEOSOURCE":"GDT 2001 STREETS","CREATEDATE":"2003/04/09","CREATOR":"INDUS","MODDATE":null,"ASSOC":null},"coordinates":[5375,4806]},{"type":"Point","properties":{"ID":"1095","NAME":"DALLAS WAREHOUSE AND RELOAD-DALLAS-TX","TYPE":"RAIL","MODE_TYPE":"RAIL & TRUCK","CITY":"DALLAS","STATE":"TX","FIPS":"48","ZIP":"75218","ZIP2":null,"PARCEL":0,"LATITUDE":32.86191,"LONGITUDE":-96.67223,"GEOSOURCE":"GDT 2000 STREETS","CREATEDATE":"2003/04/09","CREATOR":"INDUS","MODDATE":null,"ASSOC":"BNSF"},"coordinates":[6915,3110]},{"type":"Point","properties":{"ID":"10950","NAME":"Emery Forwarding-Salt Lake City-UT","TYPE":"AIR","MODE_TYPE":"AIR & TRUCK","CITY":"Salt Lake City","STATE":"UT","FIPS":"49","ZIP":"84104","ZIP2":null,"PARCEL":0,"LATITUDE":40.72777,"LONGITUDE":-111.9898,"GEOSOURCE":"GDT 2001 STREETS","CREATEDATE":"2003/04/09","CREATOR":"INDUS","MODDATE":null,"ASSOC":null},"coordinates":[5375,4806]},{"type":"Point","properties":{"ID":"10951","NAME":"Emery Ocean Services-Salt Lake City","TYPE":"AIR","MODE_TYPE":"AIR & TRUCK","CITY":"Salt Lake City","STATE":"UT","FIPS":"49","ZIP":"84104","ZIP2":null,"PARCEL":0,"LATITUDE":40.72777,"LONGITUDE":-111.9898,"GEOSOURCE":"GDT 2001 STREETS","CREATEDATE":"2003/04/09","CREATOR":"INDUS","MODDATE":null,"ASSOC":null},"coordinates":[5375,4806]},{"type":"Point","properties":{"ID":"10952","NAME":"Emery Forwarding-Williston-VT","TYPE":"AIR","MODE_TYPE":"AIR & TRUCK","CITY":"Williston","STATE":"VT","FIPS":"50","ZIP":"05495","ZIP2":null,"PARCEL":0,"LATITUDE":44.44606,"LONGITUDE":-73.13184,"GEOSOURCE":"GDT 2001 STREETS","CREATEDATE":"2003/04/09","CREATOR":"INDUS","MODDATE":null,"ASSOC":null},"coordinates":[9282,5608]},{"type":"Point","properties":{"ID":"10953","NAME":"ECB c/o Norman G. Jensen, Inc.-Derby Line-VT","TYPE":"AIR","MODE_TYPE":"AIR & TRUCK","CITY":"Derby Line","STATE":"VT","FIPS":"50","ZIP":"05830","ZIP2":null,"PARCEL":0,"LATITUDE":45.00584,"LONGITUDE":-72.07611,"GEOSOURCE":"GDT 2001 STREETS","CREATEDATE":"2003/04/09","CREATOR":"INDUS","MODDATE":null,"ASSOC":null},"coordinates":[9388,5729]},{"type":"Point","properties":{"ID":"10960","NAME":"Emery Forwarding-Richmond-Va","TYPE":"AIR","MODE_TYPE":"AIR & TRUCK","CITY":"Richmond","STATE":"VA","FIPS":"51","ZIP":"23231","ZIP2":null,"PARCEL":0,"LATITUDE":37.51351,"LONGITUDE":-77.35749,"GEOSOURCE":"GDT 2001 STREETS","CREATEDATE":"2003/04/09","CREATOR":"INDUS","MODDATE":null,"ASSOC":null},"coordinates":[8857,4113]},{"type":"Point","properties":{"ID":"10964","NAME":"Emery Forwarding-Roanoke-Va","TYPE":"AIR","MODE_TYPE":"AIR & TRUCK","CITY":"Roanoke","STATE":"VA","FIPS":"51","ZIP":"24012","ZIP2":null,"PARCEL":0,"LATITUDE":37.33125,"LONGITUDE":-79.9648,"GEOSOURCE":"GDT 2001 STREETS","CREATEDATE":"2003/04/09","CREATOR":"INDUS","MODDATE":null,"ASSOC":null},"coordinates":[8595,4074]},{"type":"Point","properties":{"ID":"10969","NAME":"ECB c/o Norman G. Jensen, Inc.-Blaine-WA","TYPE":"AIR","MODE_TYPE":"AIR & TRUCK","CITY":"Blaine","STATE":"WA","FIPS":"53","ZIP":"98231","ZIP2":null,"PARCEL":0,"LATITUDE":48.99913,"LONGITUDE":-122.75019,"GEOSOURCE":"GDT 2001 STREETS","CREATEDATE":"2003/04/09","CREATOR":"INDUS","MODDATE":null,"ASSOC":null},"coordinates":[4292,6590]},{"type":"Point","properties":{"ID":"1098","NAME":"CN-ARCADIA-WS","TYPE":"RAIL","MODE_TYPE":"RAIL & TRUCK","CITY":"ARCADIA","STATE":"WI","FIPS":"55","ZIP":"54612","ZIP2":null,"PARCEL":0,"LATITUDE":44.25039,"LONGITUDE":-91.50686,"GEOSOURCE":"GDT 2000 STREETS","CREATEDATE":"2003/04/09","CREATOR":"INDUS","MODDATE":null,"ASSOC":null},"coordinates":[7434,5566]},{"type":"Point","properties":{"ID":"1099","NAME":"PACIFIC COAST CONTAINER-OAKLAND-CA","TYPE":"TRUCK","MODE_TYPE":"TRUCK & TRUCK","CITY":"OAKLAND","STATE":"CA","FIPS":"06","ZIP":"94607","ZIP2":null,"PARCEL":0,"LATITUDE":37.80939,"LONGITUDE":-122.31093,"GEOSOURCE":"GDT 2000 STREETS","CREATEDATE":"2003/04/09","CREATOR":"INDUS","MODDATE":null,"ASSOC":null},"coordinates":[4337,4177]},{"type":"Point","properties":{"ID":"10992","NAME":"Flathead Cartage-Kalispell-WA","TYPE":"AIR","MODE_TYPE":"AIR & TRUCK","CITY":"Kalispell","STATE":"WA","FIPS":"53","ZIP":null,"ZIP2":null,"PARCEL":0,"LATITUDE":47.67957,"LONGITUDE":-122.2085,"GEOSOURCE":"GDT 2001 STREETS","CREATEDATE":"2003/04/09","CREATOR":"INDUS","MODDATE":null,"ASSOC":null},"coordinates":[4347,6306]},{"type":"Point","properties":{"ID":"10994","NAME":"Emery Forwarding-Seattle-WA","TYPE":"AIR","MODE_TYPE":"AIR & TRUCK","CITY":"Seattle","STATE":"WA","FIPS":"53","ZIP":"98158","ZIP2":null,"PARCEL":0,"LATITUDE":47.45894,"LONGITUDE":-122.30061,"GEOSOURCE":"GDT 2001 STREETS","CREATEDATE":"2003/04/09","CREATOR":"INDUS","MODDATE":null,"ASSOC":null},"coordinates":[4338,6258]},{"type":"Point","properties":{"ID":"10998","NAME":"Emery Forwarding-Nitro-WV","TYPE":"AIR","MODE_TYPE":"AIR & TRUCK","CITY":"Nitro","STATE":"WV","FIPS":"54","ZIP":"25143","ZIP2":null,"PARCEL":0,"LATITUDE":38.44205,"LONGITUDE":-81.84204,"GEOSOURCE":"GDT 2001 STREETS","CREATEDATE":"2003/04/09","CREATOR":"INDUS","MODDATE":null,"ASSOC":null},"coordinates":[8406,4314]},{"type":"Point","properties":{"ID":"10999","NAME":"Emery Forwarding-Oak Creek-WI","TYPE":"AIR","MODE_TYPE":"AIR & TRUCK","CITY":"Oak Creek","STATE":"WI","FIPS":"55","ZIP":"53154","ZIP2":null,"PARCEL":0,"LATITUDE":42.90961,"LONGITUDE":-87.92655,"GEOSOURCE":"GDT 2001 STREETS","CREATEDATE":"2003/04/09","CREATOR":"INDUS","MODDATE":null,"ASSOC":null},"coordinates":[7794,5277]},{"type":"Point","properties":{"ID":"110","NAME":"BAY COLONY RAILROAD CORPORATION-YARMOUTH-MA","TYPE":"RAIL","MODE_TYPE":"RAIL & TRUCK","CITY":"YARMOUTH","STATE":"MA","FIPS":"25","ZIP":null,"ZIP2":null,"PARCEL":0,"LATITUDE":42.16951,"LONGITUDE":-71.60633,"GEOSOURCE":"GDT 2000 STREETS","CREATEDATE":"2003/04/09","CREATOR":"INDUS","MODDATE":null,"ASSOC":"BCLR"},"coordinates":[9435,5117]},{"type":"Point","properties":{"ID":"1100","NAME":"PACIFIC HARBOR LINE, INC.","TYPE":"RAIL","MODE_TYPE":"RAIL & PORT","CITY":"WILMINGTON","STATE":"CA","FIPS":"06","ZIP":"90744","ZIP2":null,"PARCEL":0,"LATITUDE":33.76655,"LONGITUDE":-118.26447,"GEOSOURCE":"GDT 2000 STREETS","CREATEDATE":"2003/04/09","CREATOR":"INDUS","MODDATE":null,"ASSOC":"PORT OF LONG BEACH AND LOS ANGELES, CALIFORNIA"},"coordinates":[4744,3305]},{"type":"Point","properties":{"ID":"11000","NAME":"Emery Customs Brokers-Milwaukee-WI","TYPE":"AIR","MODE_TYPE":"AIR & TRUCK","CITY":"Milwaukee","STATE":"WI","FIPS":"55","ZIP":"53154","ZIP2":null,"PARCEL":0,"LATITUDE":42.90961,"LONGITUDE":-87.92655,"GEOSOURCE":"GDT 2001 STREETS","CREATEDATE":"2003/04/09","CREATOR":"INDUS","MODDATE":null,"ASSOC":null},"coordinates":[7794,5277]},{"type":"Point","properties":{"ID":"1101","NAME":"CHICAGO SOUTHSHORE AND SOUTH BEND","TYPE":"RAIL","MODE_TYPE":"TRUCK - PORT - RAIL","CITY":"MICHIGAN CITY","STATE":"IN","FIPS":"18","ZIP":"46360","ZIP2":null,"PARCEL":0,"LATITUDE":41.71314,"LONGITUDE":-86.86973,"GEOSOURCE":"GDT 2000 STREETS","CREATEDATE":"2003/04/09","CREATOR":"INDUS","MODDATE":null,"ASSOC":null},"coordinates":[7901,5019]},{"type":"Point","properties":{"ID":"1102","NAME":"NEW YORK AND ATLANTIC RAILWAY","TYPE":"RAIL","MODE_TYPE":"RAIL & TRUCK","CITY":"GLENDALE","STATE":"NY","FIPS":"36","ZIP":"11385","ZIP2":null,"PARCEL":0,"LATITUDE":40.7062,"LONGITUDE":-73.88654,"GEOSOURCE":"GDT 2000 STREETS","CREATEDATE":"2003/04/09","CREATOR":"INDUS","MODDATE":null,"ASSOC":"CP, CSXT, NS, NYCH, P&W"},"coordinates":[9206,4802]},{"type":"Point","properties":{"ID":"1103","NAME":"LOUISVILLE AND INDIANA RAILROAD","TYPE":"RAIL","MODE_TYPE":"TRUCK - PORT - RAIL","CITY":"JEFFERSONVILLE","STATE":"IN","FIPS":"18","ZIP":"47130","ZIP2":null,"PARCEL":0,"LATITUDE":38.29736,"LONGITUDE":-85.74913,"GEOSOURCE":"GDT 2000 STREETS","CREATEDATE":"2003/04/09","CREATOR":"INDUS","MODDATE":null,"ASSOC":null},"coordinates":[8013,4282]},{"type":"Point","properties":{"ID":"1104","NAME":"ZOOM TRANSPORT","TYPE":"AIR","MODE_TYPE":"AIR & TRUCK","CITY":"CHARLESTON","STATE":"SC","FIPS":"45","ZIP":"29413","ZIP2":null,"PARCEL":0,"LATITUDE":32.85932,"LONGITUDE":-80.02245,"GEOSOURCE":"GDT 2000 STREETS","CREATEDATE":"2003/04/09","CREATOR":"INDUS","MODDATE":null,"ASSOC":null},"coordinates":[8589,3110]},{"type":"Point","properties":{"ID":"1105","NAME":"VIRGIN ATLANTIC CARGO","TYPE":"AIR","MODE_TYPE":"AIR & TRUCK","CITY":"LAKE SUCCESS","STATE":"NY","FIPS":"36","ZIP":"11042","ZIP2":null,"PARCEL":0,"LATITUDE":40.75592,"LONGITUDE":-73.68872,"GEOSOURCE":"GDT 2000 STREETS","CREATEDATE":"2003/04/09","CREATOR":"INDUS","MODDATE":null,"ASSOC":null},"coordinates":[9226,4813]},{"type":"Point","properties":{"ID":"1106","NAME":"UNITED STATES CARGO AND COURIER SERVICE","TYPE":"AIR","MODE_TYPE":"AIR & TRUCK","CITY":"COLUMBUS","STATE":"OH","FIPS":"39","ZIP":"43212","ZIP2":null,"PARCEL":0,"LATITUDE":39.97868,"LONGITUDE":-83.02774,"GEOSOURCE":"GDT 2000 STREETS","CREATEDATE":"2003/04/09","CREATOR":"INDUS","MODDATE":null,"ASSOC":null},"coordinates":[8287,4645]},{"type":"Point","properties":{"ID":"1107","NAME":"UNITED PARCEL SERVICE","TYPE":"AIR","MODE_TYPE":"AIR & TRUCK","CITY":"ATLANTA","STATE":"GA","FIPS":"13","ZIP":"30328","ZIP2":null,"PARCEL":0,"LATITUDE":33.943,"LONGITUDE":-84.36333,"GEOSOURCE":"GDT 2000 STREETS","CREATEDATE":"2003/04/09","CREATOR":"INDUS","MODDATE":null,"ASSOC":null},"coordinates":[8153,3343]},{"type":"Point","properties":{"ID":"111","NAME":"ST. LOUIS COUNTY PORT AUTHORITY","TYPE":"PORT","MODE_TYPE":"TRUCK - PORT - RAIL","CITY":"CLAYTON","STATE":"MO","FIPS":"29","ZIP":"63105","ZIP2":null,"PARCEL":0,"LATITUDE":38.52889,"LONGITUDE":-90.26333,"GEOSOURCE":"Port Series Report","CREATEDATE":"2003/04/09","CREATOR":"INDUS","MODDATE":null,"ASSOC":"UP"},"coordinates":[7559,4332]},{"type":"Point","properties":{"ID":"1110","NAME":"TRANS-EXPRESS INTERNATIONAL COURIER","TYPE":"AIR","MODE_TYPE":"AIR & TRUCK","CITY":"MIAMI","STATE":"FL","FIPS":"12","ZIP":"33166","ZIP2":null,"PARCEL":0,"LATITUDE":25.80796,"LONGITUDE":-80.32397,"GEOSOURCE":"GDT 2000 STREETS","CREATEDATE":"2003/04/09","CREATOR":"INDUS","MODDATE":null,"ASSOC":null},"coordinates":[8559,1589]},{"type":"Point","properties":{"ID":"1111","NAME":"TODD TRANSIT","TYPE":"AIR","MODE_TYPE":"AIR & TRUCK","CITY":"ROCKFORD","STATE":"IL","FIPS":"17","ZIP":"61109","ZIP2":null,"PARCEL":0,"LATITUDE":42.21507,"LONGITUDE":-89.07566,"GEOSOURCE":"GDT 2000 STREETS","CREATEDATE":"2003/04/09","CREATOR":"INDUS","MODDATE":null,"ASSOC":null},"coordinates":[7679,5127]},{"type":"Point","properties":{"ID":"1114","NAME":"TARGET LOGISTIC SERVICES","TYPE":"AIR","MODE_TYPE":"AIR & TRUCK","CITY":"CAMPTON","STATE":"CA","FIPS":"06","ZIP":"90220","ZIP2":null,"PARCEL":0,"LATITUDE":33.879,"LONGITUDE":-118.22497,"GEOSOURCE":"GDT 2000 STREETS","CREATEDATE":"2003/04/09","CREATOR":"INDUS","MODDATE":null,"ASSOC":null},"coordinates":[4748,3330]},{"type":"Point","properties":{"ID":"1116","NAME":"STEVENS AIR TRANSPORT","TYPE":"AIR","MODE_TYPE":"AIR & TRUCK","CITY":"INGLEWOOD","STATE":"CA","FIPS":"06","ZIP":"90301","ZIP2":null,"PARCEL":0,"LATITUDE":33.95534,"LONGITUDE":-118.37362,"GEOSOURCE":"GDT 2000 STREETS","CREATEDATE":"2003/04/09","CREATOR":"INDUS","MODDATE":null,"ASSOC":null},"coordinates":[4733,3346]},{"type":"Point","properties":{"ID":"1117","NAME":"SPRINT INTERNATIONAL EXPRESS","TYPE":"AIR","MODE_TYPE":"AIR & TRUCK","CITY":"JAMAICA","STATE":"NY","FIPS":"36","ZIP":"11434","ZIP2":null,"PARCEL":0,"LATITUDE":40.66649,"LONGITUDE":-73.77253,"GEOSOURCE":"GDT 2000 STREETS","CREATEDATE":"2003/04/09","CREATOR":"INDUS","MODDATE":null,"ASSOC":null},"coordinates":[9218,4793]},{"type":"Point","properties":{"ID":"1118","NAME":"SOUTHWEST AIRLINES","TYPE":"AIR","MODE_TYPE":"AIR & TRUCK","CITY":"DALLAS","STATE":"TX","FIPS":"48","ZIP":"75235","ZIP2":null,"PARCEL":0,"LATITUDE":32.83987,"LONGITUDE":-96.84309,"GEOSOURCE":"GDT 2000 STREETS","CREATEDATE":"2003/04/09","CREATOR":"INDUS","MODDATE":null,"ASSOC":"DALLAS LOVE FIELD (DAL)"},"coordinates":[6898,3105]},{"type":"Point","properties":{"ID":"1119","NAME":"SKY COURIER","TYPE":"AIR","MODE_TYPE":"AIR & TRUCK","CITY":"STERLING","STATE":"VA","FIPS":"51","ZIP":"20166","ZIP2":null,"PARCEL":0,"LATITUDE":39.02577,"LONGITUDE":-77.41339,"GEOSOURCE":"GDT 2000 STREETS","CREATEDATE":"2003/04/09","CREATOR":"INDUS","MODDATE":null,"ASSOC":null},"coordinates":[8851,4439]},{"type":"Point","properties":{"ID":"112","NAME":"PORT OF OGDENSBURG","TYPE":"PORT","MODE_TYPE":"TRUCK - PORT - RAIL","CITY":"OGDENSBURG","STATE":"NY","FIPS":"36","ZIP":"13669","ZIP2":null,"PARCEL":0,"LATITUDE":44.72418,"LONGITUDE":-75.43334,"GEOSOURCE":"GDT 2000 STREETS","CREATEDATE":"2003/04/09","CREATOR":"INDUS","MODDATE":null,"ASSOC":null},"coordinates":[9051,5668]},{"type":"Point","properties":{"ID":"1121","NAME":"PILOT AIR FREIGHT","TYPE":"AIR","MODE_TYPE":"AIR & TRUCK","CITY":"LIMA","STATE":"PA","FIPS":"42","ZIP":"19037","ZIP2":null,"PARCEL":0,"LATITUDE":39.91793,"LONGITUDE":-75.44084,"GEOSOURCE":"GDT 2001 STREETS","CREATEDATE":"2003/04/09","CREATOR":"INDUS","MODDATE":null,"ASSOC":null},"coordinates":[9050,4632]},{"type":"Point","properties":{"ID":"1122","NAME":"NORTHWEST CARGO","TYPE":"AIR","MODE_TYPE":"AIR & TRUCK","CITY":"ST. PAUL","STATE":"MN","FIPS":"27","ZIP":"55111","ZIP2":"3034","PARCEL":0,"LATITUDE":44.87065,"LONGITUDE":-93.19938,"GEOSOURCE":"GDT 2000 STREETS","CREATEDATE":"2003/04/09","CREATOR":"INDUS","MODDATE":null,"ASSOC":null},"coordinates":[7264,5700]},{"type":"Point","properties":{"ID":"1123","NAME":"NATIONAL AIR CARGO","TYPE":"AIR","MODE_TYPE":"AIR & TRUCK","CITY":"ORCHARD PARK","STATE":"NY","FIPS":"36","ZIP":"14127","ZIP2":null,"PARCEL":0,"LATITUDE":42.7927,"LONGITUDE":-78.76503,"GEOSOURCE":"GDT 2000 STREETS","CREATEDATE":"2003/04/09","CREATOR":"INDUS","MODDATE":null,"ASSOC":null},"coordinates":[8716,5252]},{"type":"Point","properties":{"ID":"1124","NAME":"MIDWEST EXPRESS AIR CARGO","TYPE":"AIR","MODE_TYPE":"AIR & TRUCK","CITY":"MILWAUKEE","STATE":"WI","FIPS":"55","ZIP":"53207","ZIP2":null,"PARCEL":0,"LATITUDE":42.94411,"LONGITUDE":-87.91281,"GEOSOURCE":"GDT 2000 STREETS","CREATEDATE":"2003/04/09","CREATOR":"INDUS","MODDATE":null,"ASSOC":null},"coordinates":[7796,5284]},{"type":"Point","properties":{"ID":"1125","NAME":"KLAMATH COLD STORAGE-KLAMATH FALLS-OR","TYPE":"RAIL","MODE_TYPE":"RAIL & TRUCK","CITY":"KLAMATH FALLS","STATE":"OR","FIPS":"41","ZIP":"97601","ZIP2":null,"PARCEL":0,"LATITUDE":42.22342,"LONGITUDE":-121.7729,"GEOSOURCE":"GDT 2000 STREETS","CREATEDATE":"2003/04/09","CREATOR":"INDUS","MODDATE":null,"ASSOC":"BNSF"},"coordinates":[4391,5129]},{"type":"Point","properties":{"ID":"1126","NAME":"J AND P WHOLESALE-KLAMATH FALLS-OR","TYPE":"RAIL","MODE_TYPE":"RAIL & TRUCK","CITY":"KLAMATH FALLS","STATE":"OR","FIPS":"41","ZIP":"97603","ZIP2":null,"PARCEL":0,"LATITUDE":42.19349,"LONGITUDE":-121.78714,"GEOSOURCE":"GDT 2000 STREETS","CREATEDATE":"2003/04/09","CREATOR":"INDUS","MODDATE":null,"ASSOC":"BNSF"},"coordinates":[4389,5123]},{"type":"Point","properties":{"ID":"1127","NAME":"CASCADE WAREHOUSE CO., INC.-JUNCTION CITY-OR","TYPE":"RAIL","MODE_TYPE":"RAIL & TRUCK","CITY":"JUNCTION CITY","STATE":"OR","FIPS":"41","ZIP":"97448","ZIP2":null,"PARCEL":0,"LATITUDE":44.21498,"LONGITUDE":-123.20297,"GEOSOURCE":"GDT 2000 STREETS","CREATEDATE":"2003/04/09","CREATOR":"INDUS","MODDATE":null,"ASSOC":"BNSF"},"coordinates":[4247,5558]},{"type":"Point","properties":{"ID":"1128","NAME":"OREGON COLD STORAGE LLC DBA VALLEY WAREHOUSE-FORES","TYPE":"RAIL","MODE_TYPE":"RAIL & TRUCK","CITY":"FOREST GROVE","STATE":"OR","FIPS":"41","ZIP":"97116","ZIP2":null,"PARCEL":0,"LATITUDE":45.52391,"LONGITUDE":-123.10199,"GEOSOURCE":"GDT 2000 STREETS","CREATEDATE":"2003/04/09","CREATOR":"INDUS","MODDATE":null,"ASSOC":"BNSF"},"coordinates":[4257,5841]},{"type":"Point","properties":{"ID":"1129","NAME":"NORTHWEST RELOAD-EUGENE-OR","TYPE":"RAIL","MODE_TYPE":"RAIL & TRUCK","CITY":"EUGENE","STATE":"OR","FIPS":"41","ZIP":"97402","ZIP2":null,"PARCEL":0,"LATITUDE":44.06236,"LONGITUDE":-123.12664,"GEOSOURCE":"GDT 2000 STREETS","CREATEDATE":"2003/04/09","CREATOR":"INDUS","MODDATE":null,"ASSOC":"BNSF"},"coordinates":[4255,5526]},