{
"type": "FeatureCollection",
"crs": { "type": "name", "properties": { "name": "urn:ogc:def:crs:OGC:1.3:CRS84" } },
                                                                                
"features": [
{ "type": "Feature", "properties": { "ID": "1028", "NAME": "CN SOUTH BUFFALO DISTRIBUTION CENTER-LACKAWANA-NY", "TYPE": "RAIL", "MODE_TYPE": "RAIL & TRUCK", "CITY": "LACKAWANA", "STATE": "NY", "FIPS": "36", "ZIP": "14218", "ZIP2": " ", "PARCEL": 0.000000, "LATITUDE": 42.823750, "LONGITUDE": -78.850110, "GEOSOURCE": "GDT 2000 STREETS", "CREATEDATE": "2003\/04\/09 00:00:00", "CREATOR": "INDUS", "MODDATE": null, "ASSOC": "CN" }, "geometry": { "type": "Point", "coordinates": [ -78.85011, 42.82375 ] } },
{ "type": "Feature", "properties": { "ID": "10605", "NAME": "Emery Forwarding-Albany-NY", "TYPE": "AIR", "MODE_TYPE": "AIR & TRUCK", "CITY": "Albany", "STATE": "NY", "FIPS": "36", "ZIP": "12205", "ZIP2": " ", "PARCEL": 0.000000, "LATITUDE": 42.720980, "LONGITUDE": -73.865160, "GEOSOURCE": "GDT 2001 STREETS", "CREATEDATE": "2003\/04\/09 00:00:00", "CREATOR": "INDUS", "MODDATE": null, "ASSOC": " " }, "geometry": { "type": "Point", "coordinates": [ -73.86516, 42.72098 ] } },
{ "type": "Feature", "properties": { "ID": "10607", "NAME": "Emery Forwarding-Buffalo-NY", "TYPE": "AIR", "MODE_TYPE": "AIR & TRUCK", "CITY": "Buffalo", "STATE": "NY", "FIPS": "36", "ZIP": "14225", "ZIP2": " ", "PARCEL": 0.000000, "LATITUDE": 42.931780, "LONGITUDE": -78.714350, "GEOSOURCE": "GDT 2001 STREETS", "CREATEDATE": "2003\/04\/09 00:00:00", "CREATOR": "INDUS", "MODDATE": null, "ASSOC": " " }, "geometry": { "type": "Point", "coordinates": [ -78.71435, 42.93178 ] } },
{ "type": "Feature", "properties": { "ID": "10608", "NAME": "Emery Customs Brokers-Buffalo-NY", "TYPE": "AIR", "MODE_TYPE": "AIR & TRUCK", "CITY": "Buffalo", "STATE": "NY", "FIPS": "36", "ZIP": "14202", "ZIP2": " ", "PARCEL": 0.000000, "LATITUDE": 42.887730, "LONGITUDE": -78.877370, "GEOSOURCE": "GDT 2001 STREETS", "CREATEDATE": "2003\/04\/09 00:00:00", "CREATOR": "INDUS", "MODDATE": null, "ASSOC": " " }, "geometry": { "type": "Point", "coordinates": [ -78.87737, 42.88773 ] } },
{ "type": "Feature", "properties": { "ID": "10616", "NAME": "Emery Customs Brokers-Rochester-NY", "TYPE": "AIR", "MODE_TYPE": "AIR & TRUCK", "CITY": "Rochester", "STATE": "NY", "FIPS": "36", "ZIP": "14624", "ZIP2": " ", "PARCEL": 0.000000, "LATITUDE": 43.129090, "LONGITUDE": -77.672940, "GEOSOURCE": "GDT 2001 STREETS", "CREATEDATE": "2003\/04\/09 00:00:00", "CREATOR": "INDUS", "MODDATE": null, "ASSOC": " " }, "geometry": { "type": "Point", "coordinates": [ -77.67294, 43.129090000000133 ] } },
{ "type": "Feature", "properties": { "ID": "10617", "NAME": "Emery Forwarding-Elmira-NY", "TYPE": "AIR", "MODE_TYPE": "AIR & TRUCK", "CITY": "Elmira", "STATE": "NY", "FIPS": "36", "ZIP": "14901", "ZIP2": " ", "PARCEL": 0.000000, "LATITUDE": 42.114000, "LONGITUDE": -76.812970, "GEOSOURCE": "GDT 2001 STREETS", "CREATEDATE": "2003\/04\/09 00:00:00", "CREATOR": "INDUS", "MODDATE": null, "ASSOC": " " }, "geometry": { "type": "Point", "coordinates": [ -76.812969999999893, 42.114 ] } },
{ "type": "Feature", "properties": { "ID": "10666", "NAME": "Emery Forwarding-Springfield Gardens-NY", "TYPE": "AIR", "MODE_TYPE": "AIR & TRUCK", "CITY": "Springfield Gardens", "STATE": "NY", "FIPS": "36", "ZIP": "11413", "ZIP2": " ", "PARCEL": 0.000000, "LATITUDE": 40.658460, "LONGITUDE": -73.763700, "GEOSOURCE": "GDT 2001 STREETS", "CREATEDATE": "2003\/04\/09 00:00:00", "CREATOR": "INDUS", "MODDATE": null, "ASSOC": " " }, "geometry": { "type": "Point", "coordinates": [ -73.7637, 40.658460000000105 ] } },
{ "type": "Feature", "properties": { "ID": "10672", "NAME": "Emery Customs Brokers-Springfield Gardens-NY", "TYPE": "AIR", "MODE_TYPE": "AIR & TRUCK", "CITY": "Springfield Gardens", "STATE": "NY", "FIPS": "36", "ZIP": "11413", "ZIP2": " ", "PARCEL": 0.000000, "LATITUDE": 40.658460, "LONGITUDE": -73.763700, "GEOSOURCE": "GDT 2001 STREETS", "CREATEDATE": "2003\/04\/09 00:00:00", "CREATOR": "INDUS", "MODDATE": null, "ASSOC": " " }, "geometry": { "type": "Point", "coordinates": [ -73.7637, 40.658460000000105 ] } },
{ "type": "Feature", "properties": { "ID": "10712", "NAME": "Emery Forwarding-Rochester-NY", "TYPE": "AIR", "MODE_TYPE": "AIR & TRUCK", "CITY": "Rochester", "STATE": "NY", "FIPS": "36", "ZIP": "14624", "ZIP2": " ", "PARCEL": 0.000000, "LATITUDE": 43.129090, "LONGITUDE": -77.672940, "GEOSOURCE": "GDT 2001 STREETS", "CREATEDATE": "2003\/04\/09 00:00:00", "CREATOR": "INDUS", "MODDATE": null, "ASSOC": " " }, "geometry": { "type": "Point", "coordinates": [ -77.67294, 43.129090000000133 ] } },
{ "type": "Feature", "properties": { "ID": "10714", "NAME": "Emery Forwarding-North Syracuse-NY", "TYPE": "AIR", "MODE_TYPE": "AIR & TRUCK", "CITY": "North Syracuse", "STATE": "NY", "FIPS": "36", "ZIP": "13212", "ZIP2": " ", "PARCEL": 0.000000, "LATITUDE": 43.130970, "LONGITUDE": -76.083390, "GEOSOURCE": "GDT 2001 STREETS", "CREATEDATE": "2003\/04\/09 00:00:00", "CREATOR": "INDUS", "MODDATE": null, "ASSOC": " " }, "geometry": { "type": "Point", "coordinates": [ -76.08339, 43.13097 ] } },
{ "type": "Feature", "properties": { "ID": "1102", "NAME": "NEW YORK AND ATLANTIC RAILWAY", "TYPE": "RAIL", "MODE_TYPE": "RAIL & TRUCK", "CITY": "GLENDALE", "STATE": "NY", "FIPS": "36", "ZIP": "11385", "ZIP2": " ", "PARCEL": 0.000000, "LATITUDE": 40.706200, "LONGITUDE": -73.886540, "GEOSOURCE": "GDT 2000 STREETS", "CREATEDATE": "2003\/04\/09 00:00:00", "CREATOR": "INDUS", "MODDATE": null, "ASSOC": "CP, CSXT, NS, NYCH, P&W" }, "geometry": { "type": "Point", "coordinates": [ -73.886539999999854, 40.7062 ] } },
{ "type": "Feature", "properties": { "ID": "1105", "NAME": "VIRGIN ATLANTIC CARGO", "TYPE": "AIR", "MODE_TYPE": "AIR & TRUCK", "CITY": "LAKE SUCCESS", "STATE": "NY", "FIPS": "36", "ZIP": "11042", "ZIP2": " ", "PARCEL": 0.000000, "LATITUDE": 40.755920, "LONGITUDE": -73.688720, "GEOSOURCE": "GDT 2000 STREETS", "CREATEDATE": "2003\/04\/09 00:00:00", "CREATOR": "INDUS", "MODDATE": null, "ASSOC": " " }, "geometry": { "type": "Point", "coordinates": [ -73.68872, 40.75592 ] } },
{ "type": "Feature", "properties": { "ID": "1117", "NAME": "SPRINT INTERNATIONAL EXPRESS", "TYPE": "AIR", "MODE_TYPE": "AIR & TRUCK", "CITY": "JAMAICA", "STATE": "NY", "FIPS": "36", "ZIP": "11434", "ZIP2": " ", "PARCEL": 0.000000, "LATITUDE": 40.666490, "LONGITUDE": -73.772530, "GEOSOURCE": "GDT 2000 STREETS", "CREATEDATE": "2003\/04\/09 00:00:00", "CREATOR": "INDUS", "MODDATE": null, "ASSOC": " " }, "geometry": { "type": "Point", "coordinates": [ -73.77253, 40.66649 ] } },
{ "type": "Feature", "properties": { "ID": "112", "NAME": "PORT OF OGDENSBURG", "TYPE": "PORT", "MODE_TYPE": "TRUCK - PORT - RAIL", "CITY": "OGDENSBURG", "STATE": "NY", "FIPS": "36", "ZIP": "13669", "ZIP2": " ", "PARCEL": 0.000000, "LATITUDE": 44.724180, "LONGITUDE": -75.433340, "GEOSOURCE": "GDT 2000 STREETS", "CREATEDATE": "2003\/04\/09 00:00:00", "CREATOR": "INDUS", "MODDATE": null, "ASSOC": " " }, "geometry": { "type": "Point", "coordinates": [ -75.43334, 44.724180000000104 ] } },
{ "type": "Feature", "properties": { "ID": "1123", "NAME": "NATIONAL AIR CARGO", "TYPE": "AIR", "MODE_TYPE": "AIR & TRUCK", "CITY": "ORCHARD PARK", "STATE": "NY", "FIPS": "36", "ZIP": "14127", "ZIP2": " ", "PARCEL": 0.000000, "LATITUDE": 42.792700, "LONGITUDE": -78.765030, "GEOSOURCE": "GDT 2000 STREETS", "CREATEDATE": "2003\/04\/09 00:00:00", "CREATOR": "INDUS", "MODDATE": null, "ASSOC": " " }, "geometry": { "type": "Point", "coordinates": [ -78.76503, 42.7927 ] } },
{ "type": "Feature", "properties": { "ID": "1169", "NAME": "ASSOCIATED GLOBAL SYSTEMS", "TYPE": "AIR", "MODE_TYPE": "AIR & TRUCK", "CITY": "NEW HYDE PARK", "STATE": "NY", "FIPS": "36", "ZIP": "11042", "ZIP2": " ", "PARCEL": 0.000000, "LATITUDE": 40.757330, "LONGITUDE": -73.688720, "GEOSOURCE": "GDT 2000 STREETS", "CREATEDATE": "2003\/04\/09 00:00:00", "CREATOR": "INDUS", "MODDATE": null, "ASSOC": " " }, "geometry": { "type": "Point", "coordinates": [ -73.68872, 40.75733 ] } },
{ "type": "Feature", "properties": { "ID": "1170", "NAME": "ARAMEX INTERNATIONAL", "TYPE": "AIR", "MODE_TYPE": "AIR & TRUCK", "CITY": "JAMAICA", "STATE": "NY", "FIPS": "36", "ZIP": "11434", "ZIP2": " ", "PARCEL": 0.000000, "LATITUDE": 40.661950, "LONGITUDE": -73.775530, "GEOSOURCE": "GDT 2000 STREETS", "CREATEDATE": "2003\/04\/09 00:00:00", "CREATOR": "INDUS", "MODDATE": null, "ASSOC": " " }, "geometry": { "type": "Point", "coordinates": [ -73.77553, 40.66195 ] } },
{ "type": "Feature", "properties": { "ID": "1171", "NAME": "APEX AIR FREIGHT SYSTEMS", "TYPE": "AIR", "MODE_TYPE": "AIR & TRUCK", "CITY": "NEW YORK", "STATE": "NY", "FIPS": "36", "ZIP": "10001", "ZIP2": " ", "PARCEL": 0.000000, "LATITUDE": 40.749000, "LONGITUDE": -73.993670, "GEOSOURCE": "GDT 2000 STREETS", "CREATEDATE": "2003\/04\/09 00:00:00", "CREATOR": "INDUS", "MODDATE": null, "ASSOC": " " }, "geometry": { "type": "Point", "coordinates": [ -73.99367, 40.749 ] } },
{ "type": "Feature", "properties": { "ID": "1182", "NAME": "AJ WORLDWIDE SERVICES", "TYPE": "AIR", "MODE_TYPE": "AIR & TRUCK", "CITY": "NEW YORK", "STATE": "NY", "FIPS": "36", "ZIP": "10001", "ZIP2": " ", "PARCEL": 0.000000, "LATITUDE": 40.747180, "LONGITUDE": -73.991420, "GEOSOURCE": "GDT 2000 STREETS", "CREATEDATE": "2003\/04\/09 00:00:00", "CREATOR": "INDUS", "MODDATE": null, "ASSOC": " " }, "geometry": { "type": "Point", "coordinates": [ -73.99142, 40.74718 ] } },
{ "type": "Feature", "properties": { "ID": "1291", "NAME": "SYRACUSE HANCOCK INTERNATIONAL AIRPORT", "TYPE": "AIR", "MODE_TYPE": "AIR & TRUCK", "CITY": "SYRACUSE", "STATE": "NY", "FIPS": "36", "ZIP": "13212", "ZIP2": " ", "PARCEL": 0.000000, "LATITUDE": 43.111000, "LONGITUDE": -76.106000, "GEOSOURCE": "NTAD2002AIRPORT", "CREATEDATE": "2003\/04\/09 00:00:00", "CREATOR": "INDUS", "MODDATE": null, "ASSOC": " " }, "geometry": { "type": "Point", "coordinates": [ -76.106, 43.111000000000104 ] } },
{ "type": "Feature", "properties": { "ID": "1292", "NAME": "STEWART NEW YORK INTERNATIONAL AIRPORT", "TYPE": "AIR", "MODE_TYPE": "AIR & TRUCK", "CITY": "NEWBURGH", "STATE": "NY", "FIPS": "36", "ZIP": "12553", "ZIP2": " ", "PARCEL": 0.000000, "LATITUDE": 41.493750, "LONGITUDE": -74.098580, "GEOSOURCE": "GDT 2000 STREETS", "CREATEDATE": "2003\/04\/09 00:00:00", "CREATOR": "INDUS", "MODDATE": null, "ASSOC": " " }, "geometry": { "type": "Point", "coordinates": [ -74.09858, 41.49375 ] } },
{ "type": "Feature", "properties": { "ID": "1293", "NAME": "LA GUARDIA AIRPORT", "TYPE": "AIR", "MODE_TYPE": "AIR & TRUCK", "CITY": "NEW YORK", "STATE": "NY", "FIPS": "36", "ZIP": "10048", "ZIP2": " ", "PARCEL": 0.000000, "LATITUDE": 40.777000, "LONGITUDE": -73.873000, "GEOSOURCE": "NTAD2002AIRPORT", "CREATEDATE": "2003\/04\/09 00:00:00", "CREATOR": "INDUS", "MODDATE": null, "ASSOC": " " }, "geometry": { "type": "Point", "coordinates": [ -73.873, 40.777 ] } },
{ "type": "Feature", "properties": { "ID": "1294", "NAME": "JOHN F. KENNEDY INTERNATIONAL AIRPORT", "TYPE": "AIR", "MODE_TYPE": "AIR & TRUCK", "CITY": "JAMAICA", "STATE": "NY", "FIPS": "36", "ZIP": "11430", "ZIP2": " ", "PARCEL": 0.000000, "LATITUDE": 40.640000, "LONGITUDE": -73.779000, "GEOSOURCE": "NTAD2002AIRPORT", "CREATEDATE": "2003\/04\/09 00:00:00", "CREATOR": "INDUS", "MODDATE": null, "ASSOC": " " }, "geometry": { "type": "Point", "coordinates": [ -73.779, 40.64 ] } },
{ "type": "Feature", "properties": { "ID": "1295", "NAME": "ALBANY INTERNATIONAL AIRPORT", "TYPE": "AIR", "MODE_TYPE": "AIR & TRUCK", "CITY": "ALBANY", "STATE": "NY", "FIPS": "36", "ZIP": "12211", "ZIP2": "1057", "PARCEL": 0.000000, "LATITUDE": 42.726710, "LONGITUDE": -73.794010, "GEOSOURCE": "GDT 2000 STREETS", "CREATEDATE": "2003\/04\/09 00:00:00", "CREATOR": "INDUS", "MODDATE": null, "ASSOC": " " }, "geometry": { "type": "Point", "coordinates": [ -73.79401, 42.72671 ] } },
{ "type": "Feature", "properties": { "ID": "1435", "NAME": "NS-BUFFALO-NY", "TYPE": "RAIL", "MODE_TYPE": "RAIL & TRUCK", "CITY": "BUFFALO", "STATE": "NY", "FIPS": "36", "ZIP": "14227", "ZIP2": "1069", "PARCEL": 0.000000, "LATITUDE": 42.893590, "LONGITUDE": -78.782720, "GEOSOURCE": "GDT 2000 STREETS", "CREATEDATE": "2003\/04\/09 00:00:00", "CREATOR": "INDUS", "MODDATE": null, "ASSOC": " " }, "geometry": { "type": "Point", "coordinates": [ -78.78272, 42.893590000000131 ] } },
{ "type": "Feature", "properties": { "ID": "1563", "NAME": "M. J. WARD AND SON, INC.-BATH-NY", "TYPE": "RAIL", "MODE_TYPE": "RAIL & TRUCK", "CITY": "BATH", "STATE": "NY", "FIPS": "36", "ZIP": "14810", "ZIP2": " ", "PARCEL": 0.000000, "LATITUDE": 42.332500, "LONGITUDE": -77.323790, "GEOSOURCE": "GDT 2000 STREETS", "CREATEDATE": "2003\/04\/09 00:00:00", "CREATOR": "INDUS", "MODDATE": null, "ASSOC": "LAL, CSX" }, "geometry": { "type": "Point", "coordinates": [ -77.32379, 42.3325 ] } },
{ "type": "Feature", "properties": { "ID": "1663", "NAME": "YUSEN AIR AND SEA SERVICE (USA)", "TYPE": "AIR", "MODE_TYPE": "AIR & TRUCK", "CITY": "GARDEN CITY", "STATE": "NY", "FIPS": "36", "ZIP": "11530", "ZIP2": " ", "PARCEL": 0.000000, "LATITUDE": 40.723770, "LONGITUDE": -73.607380, "GEOSOURCE": "GDT 2000 STREETS", "CREATEDATE": "2003\/04\/09 00:00:00", "CREATOR": "INDUS", "MODDATE": null, "ASSOC": " " }, "geometry": { "type": "Point", "coordinates": [ -73.60738, 40.72377 ] } },
{ "type": "Feature", "properties": { "ID": "1664", "NAME": "WORLD TRADE BUSINESS USA", "TYPE": "AIR", "MODE_TYPE": "AIR & TRUCK", "CITY": "JAMAICA", "STATE": "NY", "FIPS": "36", "ZIP": "11430", "ZIP2": " ", "PARCEL": 0.000000, "LATITUDE": 40.663130, "LONGITUDE": -73.795250, "GEOSOURCE": "GDT 2000 STREETS", "CREATEDATE": "2003\/04\/09 00:00:00", "CREATOR": "INDUS", "MODDATE": null, "ASSOC": " " }, "geometry": { "type": "Point", "coordinates": [ -73.79525, 40.663130000000137 ] } },
{ "type": "Feature", "properties": { "ID": "1666", "NAME": "SUREWAY WORLDWIDE", "TYPE": "AIR", "MODE_TYPE": "AIR & TRUCK", "CITY": "LONG ISLAND CITY", "STATE": "NY", "FIPS": "36", "ZIP": "11101", "ZIP2": " ", "PARCEL": 0.000000, "LATITUDE": 40.742270, "LONGITUDE": -73.945680, "GEOSOURCE": "GDT 2000 STREETS", "CREATEDATE": "2003\/04\/09 00:00:00", "CREATOR": "INDUS", "MODDATE": null, "ASSOC": " " }, "geometry": { "type": "Point", "coordinates": [ -73.94568, 40.74227 ] } },
{ "type": "Feature", "properties": { "ID": "1667", "NAME": "SERVICE BY AIR", "TYPE": "AIR", "MODE_TYPE": "AIR & TRUCK", "CITY": "PLAINVIEW", "STATE": "NY", "FIPS": "36", "ZIP": "11803", "ZIP2": " ", "PARCEL": 0.000000, "LATITUDE": 40.791000, "LONGITUDE": -73.466780, "GEOSOURCE": "GDT 2000 STREETS", "CREATEDATE": "2003\/04\/09 00:00:00", "CREATOR": "INDUS", "MODDATE": null, "ASSOC": " " }, "geometry": { "type": "Point", "coordinates": [ -73.46678, 40.791 ] } },
{ "type": "Feature", "properties": { "ID": "1692", "NAME": "PORT OF OSWEGO", "TYPE": "PORT", "MODE_TYPE": "PORT & TRUCK", "CITY": "OSWEGO", "STATE": "NY", "FIPS": "36", "ZIP": "13126", "ZIP2": " ", "PARCEL": 0.000000, "LATITUDE": 43.463330, "LONGITUDE": -76.515280, "GEOSOURCE": "NTAD2002PORT", "CREATEDATE": "2003\/04\/09 00:00:00", "CREATOR": "INDUS", "MODDATE": null, "ASSOC": " " }, "geometry": { "type": "Point", "coordinates": [ -76.51528, 43.46333 ] } },
{ "type": "Feature", "properties": { "ID": "1693", "NAME": "PORT OF ALBANY", "TYPE": "PORT", "MODE_TYPE": "TRUCK - PORT - RAIL", "CITY": "ALBANY", "STATE": "NY", "FIPS": "36", "ZIP": "12202", "ZIP2": " ", "PARCEL": 0.000000, "LATITUDE": 42.627560, "LONGITUDE": -73.757180, "GEOSOURCE": "GDT 2000 STREETS", "CREATEDATE": "2003\/04\/09 00:00:00", "CREATOR": "INDUS", "MODDATE": null, "ASSOC": " " }, "geometry": { "type": "Point", "coordinates": [ -73.75718, 42.62756 ] } },
{ "type": "Feature", "properties": { "ID": "1800", "NAME": "FRONTIER  ELEVATOR-BUFFALO-NY", "TYPE": "RAIL", "MODE_TYPE": "RAIL & TRUCK", "CITY": "BUFFALO", "STATE": "NY", "FIPS": "36", "ZIP": "14203", "ZIP2": " ", "PARCEL": 0.000000, "LATITUDE": 42.870130, "LONGITUDE": -78.876150, "GEOSOURCE": "GDT 2000 STREETS", "CREATEDATE": "2003\/04\/09 00:00:00", "CREATOR": "INDUS", "MODDATE": null, "ASSOC": "CR, CSXT" }, "geometry": { "type": "Point", "coordinates": [ -78.87615, 42.87013 ] } },
{ "type": "Feature", "properties": { "ID": "1802", "NAME": "ADM MILLING CO.-BUFFALO-NY", "TYPE": "RAIL", "MODE_TYPE": "RAIL & TRUCK", "CITY": "BUFFALO", "STATE": "NY", "FIPS": "36", "ZIP": "14240", "ZIP2": " ", "PARCEL": 0.000000, "LATITUDE": 42.866870, "LONGITUDE": -78.872110, "GEOSOURCE": "GDT 2000 STREETS", "CREATEDATE": "2003\/04\/09 00:00:00", "CREATOR": "INDUS", "MODDATE": null, "ASSOC": "CSXT" }, "geometry": { "type": "Point", "coordinates": [ -78.87211, 42.86687 ] } },
{ "type": "Feature", "properties": { "ID": "1805", "NAME": "AVLIN FARM STORE ELEVATOR-CALEDONIA-NY", "TYPE": "RAIL", "MODE_TYPE": "RAIL & TRUCK", "CITY": "CALEDONIA", "STATE": "NY", "FIPS": "36", "ZIP": "14423", "ZIP2": " ", "PARCEL": 0.000000, "LATITUDE": 42.918520, "LONGITUDE": -77.814460, "GEOSOURCE": "GDT 2000 STREETS", "CREATEDATE": "2003\/04\/09 00:00:00", "CREATOR": "INDUS", "MODDATE": null, "ASSOC": "GNWR" }, "geometry": { "type": "Point", "coordinates": [ -77.81446, 42.91852 ] } },
{ "type": "Feature", "properties": { "ID": "1807", "NAME": "RALSTON PURINA CO.-DUNKIRK-NY", "TYPE": "RAIL", "MODE_TYPE": "RAIL & TRUCK", "CITY": "DUNKIRK", "STATE": "NY", "FIPS": "36", "ZIP": "14048", "ZIP2": " ", "PARCEL": 0.000000, "LATITUDE": 42.490020, "LONGITUDE": -79.295390, "GEOSOURCE": "GDT 2000 STREETS", "CREATEDATE": "2003\/04\/09 00:00:00", "CREATOR": "INDUS", "MODDATE": null, "ASSOC": "CSXT," }, "geometry": { "type": "Point", "coordinates": [ -79.29539, 42.49002 ] } },
{ "type": "Feature", "properties": { "ID": "2014", "NAME": "SONWIL DISTRIBUTION CENTER INC.-BUFFALO-NY", "TYPE": "RAIL", "MODE_TYPE": "RAIL & TRUCK", "CITY": "BUFFALO", "STATE": "NY", "FIPS": "36", "ZIP": "14225", "ZIP2": " ", "PARCEL": 0.000000, "LATITUDE": 42.932830, "LONGITUDE": -78.714350, "GEOSOURCE": "GDT 2000 STREETS", "CREATEDATE": "2003\/04\/09 00:00:00", "CREATOR": "INDUS", "MODDATE": null, "ASSOC": " " }, "geometry": { "type": "Point", "coordinates": [ -78.71435, 42.93283 ] } },
{ "type": "Feature", "properties": { "ID": "2287", "NAME": "THE PORT AUTHORITY OF NEW YORK AND NEW JERSEY", "TYPE": "PORT", "MODE_TYPE": "TRUCK - PORT - RAIL", "CITY": "NEW YORK", "STATE": "NY", "FIPS": "36", "ZIP": "10003", "ZIP2": " ", "PARCEL": 0.000000, "LATITUDE": 40.737320, "LONGITUDE": -73.988420, "GEOSOURCE": "GDT 2001 STREETS", "CREATEDATE": "2003\/04\/09 00:00:00", "CREATOR": "INDUS", "MODDATE": null, "ASSOC": " " }, "geometry": { "type": "Point", "coordinates": [ -73.98842, 40.737320000000125 ] } },
{ "type": "Feature", "properties": { "ID": "23", "NAME": "J AND L LUMBER TRANSFER", "TYPE": "RAIL", "MODE_TYPE": "RAIL & TRUCK", "CITY": "SCHENECTADY", "STATE": "NY", "FIPS": "36", "ZIP": "12306", "ZIP2": " ", "PARCEL": 0.000000, "LATITUDE": 42.786680, "LONGITUDE": -73.997280, "GEOSOURCE": "GDT 2000 STREETS", "CREATEDATE": "2003\/04\/09 00:00:00", "CREATOR": "INDUS", "MODDATE": null, "ASSOC": " " }, "geometry": { "type": "Point", "coordinates": [ -73.99728, 42.786680000000104 ] } },
{ "type": "Feature", "properties": { "ID": "237", "NAME": "TRANSFLO-ALBANY-NY", "TYPE": "RAIL", "MODE_TYPE": "RAIL & TRUCK", "CITY": "ALBANY", "STATE": "NY", "FIPS": "36", "ZIP": "12205", "ZIP2": " ", "PARCEL": 0.000000, "LATITUDE": 42.682970, "LONGITUDE": -73.778670, "GEOSOURCE": "GDT 2000 STREETS", "CREATEDATE": "2003\/04\/09 00:00:00", "CREATOR": "INDUS", "MODDATE": null, "ASSOC": "CSXT" }, "geometry": { "type": "Point", "coordinates": [ -73.77867, 42.682970000000125 ] } },
{ "type": "Feature", "properties": { "ID": "238", "NAME": "NS CONNECTING LINE BULK TRANSFER- ALBANY-NY", "TYPE": "RAIL", "MODE_TYPE": "RAIL & TRUCK", "CITY": "ALBANY", "STATE": "NY", "FIPS": "36", "ZIP": "12204", "ZIP2": " ", "PARCEL": 0.000000, "LATITUDE": 42.669550, "LONGITUDE": -73.736090, "GEOSOURCE": "GDT 2000 STREETS", "CREATEDATE": "2003\/04\/09 00:00:00", "CREATOR": "INDUS", "MODDATE": null, "ASSOC": "CPRS" }, "geometry": { "type": "Point", "coordinates": [ -73.73609, 42.66955 ] } },
{ "type": "Feature", "properties": { "ID": "240", "NAME": "BULK TRANS-LOADING SERVICE- ALBANY-NY", "TYPE": "RAIL", "MODE_TYPE": "RAIL & TRUCK", "CITY": "ALBANY", "STATE": "NY", "FIPS": "36", "ZIP": "12205", "ZIP2": "1425", "PARCEL": 0.000000, "LATITUDE": 42.693650, "LONGITUDE": -73.794660, "GEOSOURCE": "GDT 2000 STREETS", "CREATEDATE": "2003\/04\/09 00:00:00", "CREATOR": "INDUS", "MODDATE": null, "ASSOC": "CSXT" }, "geometry": { "type": "Point", "coordinates": [ -73.79466, 42.69365 ] } },
{ "type": "Feature", "properties": { "ID": "2578", "NAME": "C. S. W. Warehouse", "TYPE": "RAIL", "MODE_TYPE": "RAIL & TRUCK", "CITY": "Blasdall", "STATE": "NY", "FIPS": "36", "ZIP": "14219", "ZIP2": " ", "PARCEL": 0.000000, "LATITUDE": 42.797560, "LONGITUDE": -78.837030, "GEOSOURCE": "GDT 2001 STREETS", "CREATEDATE": "2003\/04\/09 00:00:00", "CREATOR": "INDUS", "MODDATE": null, "ASSOC": "NS" }, "geometry": { "type": "Point", "coordinates": [ -78.83703, 42.79756 ] } },
{ "type": "Feature", "properties": { "ID": "2586", "NAME": "Buffalo Distribution Incorporated", "TYPE": "RAIL", "MODE_TYPE": "RAIL & TRUCK", "CITY": "Depew", "STATE": "NY", "FIPS": "36", "ZIP": "14043", "ZIP2": " ", "PARCEL": 0.000000, "LATITUDE": 42.906110, "LONGITUDE": -78.696830, "GEOSOURCE": "GDT 2001 STREETS", "CREATEDATE": "2003\/04\/09 00:00:00", "CREATOR": "INDUS", "MODDATE": null, "ASSOC": "DLW" }, "geometry": { "type": "Point", "coordinates": [ -78.69683, 42.90611 ] } },
{ "type": "Feature", "properties": { "ID": "2587", "NAME": "Integrated Terminals", "TYPE": "RAIL", "MODE_TYPE": "RAIL & TRUCK", "CITY": "Lackawanna", "STATE": "NY", "FIPS": "36", "ZIP": "14218", "ZIP2": " ", "PARCEL": 0.000000, "LATITUDE": 42.825250, "LONGITUDE": -78.850820, "GEOSOURCE": "GDT 2001 STREETS", "CREATEDATE": "2003\/04\/09 00:00:00", "CREATOR": "INDUS", "MODDATE": null, "ASSOC": "SBRR" }, "geometry": { "type": "Point", "coordinates": [ -78.85082, 42.82525 ] } },
{ "type": "Feature", "properties": { "ID": "2589", "NAME": "Laub Warehouse", "TYPE": "RAIL", "MODE_TYPE": "RAIL & TRUCK", "CITY": "Buffalo", "STATE": "NY", "FIPS": "36", "ZIP": "14206", "ZIP2": " ", "PARCEL": 0.000000, "LATITUDE": 42.878130, "LONGITUDE": -78.835750, "GEOSOURCE": "GDT 2001 STREETS", "CREATEDATE": "2003\/04\/09 00:00:00", "CREATOR": "INDUS", "MODDATE": null, "ASSOC": "NS" }, "geometry": { "type": "Point", "coordinates": [ -78.83575, 42.87813 ] } },
{ "type": "Feature", "properties": { "ID": "2590", "NAME": "Sonwil Distribution Center", "TYPE": "RAIL", "MODE_TYPE": "RAIL & TRUCK", "CITY": "Buffalo", "STATE": "NY", "FIPS": "36", "ZIP": "14225", "ZIP2": " ", "PARCEL": 0.000000, "LATITUDE": 42.933770, "LONGITUDE": -78.714860, "GEOSOURCE": "GDT 2001 STREETS", "CREATEDATE": "2003\/04\/09 00:00:00", "CREATOR": "INDUS", "MODDATE": null, "ASSOC": "CSXT(OPEN)XT" }, "geometry": { "type": "Point", "coordinates": [ -78.71486, 42.93377 ] } },
{ "type": "Feature", "properties": { "ID": "2594", "NAME": "Liberty Transmodal, Inc. c\/o Cross Harbor", "TYPE": "RAIL", "MODE_TYPE": "RAIL & TRUCK", "CITY": "Brooklyn", "STATE": "NY", "FIPS": "36", "ZIP": "11232", "ZIP2": " ", "PARCEL": 0.000000, "LATITUDE": 40.654320, "LONGITUDE": -74.015090, "GEOSOURCE": "GDT 2001 STREETS", "CREATEDATE": "2003\/04\/09 00:00:00", "CREATOR": "INDUS", "MODDATE": null, "ASSOC": "NYCH" }, "geometry": { "type": "Point", "coordinates": [ -74.01509, 40.65432 ] } },
{ "type": "Feature", "properties": { "ID": "2598", "NAME": "Bulkhandlers, Incorporated", "TYPE": "RAIL", "MODE_TYPE": "RAIL & TRUCK", "CITY": "Albany", "STATE": "NY", "FIPS": "36", "ZIP": "12204", "ZIP2": " ", "PARCEL": 0.000000, "LATITUDE": 42.669550, "LONGITUDE": -73.736090, "GEOSOURCE": "GDT 2001 STREETS", "CREATEDATE": "2003\/04\/09 00:00:00", "CREATOR": "INDUS", "MODDATE": null, "ASSOC": "CPRS" }, "geometry": { "type": "Point", "coordinates": [ -73.73609, 42.66955 ] } },
{ "type": "Feature", "properties": { "ID": "2606", "NAME": "Pinter Warehouse", "TYPE": "RAIL", "MODE_TYPE": "RAIL & TRUCK", "CITY": "Deer Park", "STATE": "NY", "FIPS": "36", "ZIP": "11729", "ZIP2": " ", "PARCEL": 0.000000, "LATITUDE": 40.759980, "LONGITUDE": -73.320680, "GEOSOURCE": "GDT 2001 STREETS", "CREATEDATE": "2003\/04\/09 00:00:00", "CREATOR": "INDUS", "MODDATE": null, "ASSOC": "NYA" }, "geometry": { "type": "Point", "coordinates": [ -73.32068, 40.75998 ] } },
{ "type": "Feature", "properties": { "ID": "2611", "NAME": "J. MacKenzie Limited", "TYPE": "RAIL", "MODE_TYPE": "RAIL & TRUCK", "CITY": "Rochester", "STATE": "NY", "FIPS": "36", "ZIP": "14623", "ZIP2": " ", "PARCEL": 0.000000, "LATITUDE": 43.080790, "LONGITUDE": -77.652630, "GEOSOURCE": "GDT 2001 STREETS", "CREATEDATE": "2003\/04\/09 00:00:00", "CREATOR": "INDUS", "MODDATE": null, "ASSOC": "LAL" }, "geometry": { "type": "Point", "coordinates": [ -77.65263, 43.08079 ] } },
{ "type": "Feature", "properties": { "ID": "2614", "NAME": "Bestway Distribution Services", "TYPE": "RAIL", "MODE_TYPE": "RAIL & TRUCK", "CITY": "Cheektowaga", "STATE": "NY", "FIPS": "36", "ZIP": "14227", "ZIP2": " ", "PARCEL": 0.000000, "LATITUDE": 42.907540, "LONGITUDE": -78.749370, "GEOSOURCE": "GDT 2001 STREETS", "CREATEDATE": "2003\/04\/09 00:00:00", "CREATOR": "INDUS", "MODDATE": null, "ASSOC": "CSXT" }, "geometry": { "type": "Point", "coordinates": [ -78.74937, 42.90754 ] } },
{ "type": "Feature", "properties": { "ID": "276", "NAME": "NS CONNECTING LINE BULK TRANSFER TERMINAL-UTICA-NY", "TYPE": "RAIL", "MODE_TYPE": "RAIL & TRUCK", "CITY": "UTICA", "STATE": "NY", "FIPS": "36", "ZIP": "13052", "ZIP2": " ", "PARCEL": 0.000000, "LATITUDE": 42.759440, "LONGITUDE": -75.886990, "GEOSOURCE": "GDT 2000 STREETS", "CREATEDATE": "2003\/04\/09 00:00:00", "CREATOR": "INDUS", "MODDATE": null, "ASSOC": "NYSW" }, "geometry": { "type": "Point", "coordinates": [ -75.88699, 42.75944 ] } },
{ "type": "Feature", "properties": { "ID": "283", "NAME": "SWEETENERS  PLUS INC-LAKEVILLE-NY", "TYPE": "RAIL", "MODE_TYPE": "RAIL & TRUCK", "CITY": "LAKEVILLE", "STATE": "NY", "FIPS": "36", "ZIP": "14480", "ZIP2": " ", "PARCEL": 0.000000, "LATITUDE": 42.844990, "LONGITUDE": -77.707390, "GEOSOURCE": "GDT 2000 STREETS", "CREATEDATE": "2003\/04\/09 00:00:00", "CREATOR": "INDUS", "MODDATE": null, "ASSOC": "LAL" }, "geometry": { "type": "Point", "coordinates": [ -77.70739, 42.844990000000109 ] } },
{ "type": "Feature", "properties": { "ID": "285", "NAME": "NS CONNECTING LINE BULK TRANSFER TERMINAL-LAKEVILL", "TYPE": "RAIL", "MODE_TYPE": "RAIL & TRUCK", "CITY": "LAKEVILLE", "STATE": "NY", "FIPS": "36", "ZIP": "14480", "ZIP2": " ", "PARCEL": 0.000000, "LATITUDE": 42.844840, "LONGITUDE": -77.705690, "GEOSOURCE": "GDT 2001 STREETS", "CREATEDATE": "2003\/04\/09 00:00:00", "CREATOR": "INDUS", "MODDATE": null, "ASSOC": "LAL, CSX, NFS, CN" }, "geometry": { "type": "Point", "coordinates": [ -77.70569, 42.84484 ] } },
{ "type": "Feature", "properties": { "ID": "291", "NAME": "LIVONIA, AVON AND LAKEVILLE RAILROAD CORP-LAKEVILL", "TYPE": "RAIL", "MODE_TYPE": "RAIL & TRUCK", "CITY": "LAKEVILLE", "STATE": "NY", "FIPS": "36", "ZIP": "14480", "ZIP2": " ", "PARCEL": 0.000000, "LATITUDE": 42.844840, "LONGITUDE": -77.705690, "GEOSOURCE": "GDT 2001 STREETS", "CREATEDATE": "2003\/04\/09 00:00:00", "CREATOR": "INDUS", "MODDATE": null, "ASSOC": "LAL" }, "geometry": { "type": "Point", "coordinates": [ -77.70569, 42.84484 ] } },
{ "type": "Feature", "properties": { "ID": "313", "NAME": "TRANSFLO-ROCHESTER-NY", "TYPE": "RAIL", "MODE_TYPE": "RAIL & TRUCK", "CITY": "ROCHESTER", "STATE": "NY", "FIPS": "36", "ZIP": "14206", "ZIP2": " ", "PARCEL": 0.000000, "LATITUDE": 42.885120, "LONGITUDE": -78.853150, "GEOSOURCE": "GDT 2000 STREETS", "CREATEDATE": "2003\/04\/09 00:00:00", "CREATOR": "INDUS", "MODDATE": null, "ASSOC": "CSXT" }, "geometry": { "type": "Point", "coordinates": [ -78.85315, 42.88512 ] } },
{ "type": "Feature", "properties": { "ID": "314", "NAME": "TRANSFLO-BUFFALO-NY", "TYPE": "RAIL", "MODE_TYPE": "RAIL & TRUCK", "CITY": "BUFFALO", "STATE": "NY", "FIPS": "36", "ZIP": "14212", "ZIP2": " ", "PARCEL": 0.000000, "LATITUDE": 42.900550, "LONGITUDE": -78.784260, "GEOSOURCE": "GDT 2000 STREETS", "CREATEDATE": "2003\/04\/09 00:00:00", "CREATOR": "INDUS", "MODDATE": null, "ASSOC": "CSXT" }, "geometry": { "type": "Point", "coordinates": [ -78.78426, 42.900550000000123 ] } },
{ "type": "Feature", "properties": { "ID": "315", "NAME": "NS INDEPENDENT BULK TRAMSFER TERMINAL-BUFFALO-NY", "TYPE": "RAIL", "MODE_TYPE": "RAIL & TRUCK", "CITY": "BUFFALO", "STATE": "NY", "FIPS": "36", "ZIP": "14210", "ZIP2": " ", "PARCEL": 0.000000, "LATITUDE": 42.864760, "LONGITUDE": -78.848530, "GEOSOURCE": "GDT 2000 STREETS", "CREATEDATE": "2003\/04\/09 00:00:00", "CREATOR": "INDUS", "MODDATE": null, "ASSOC": "NS" }, "geometry": { "type": "Point", "coordinates": [ -78.84853, 42.86476 ] } },
{ "type": "Feature", "properties": { "ID": "316", "NAME": "NS INDEPENDENT BULK TRANSFER TERMINAL-BUFFALO-NY", "TYPE": "RAIL", "MODE_TYPE": "RAIL & TRUCK", "CITY": "BUFFALO", "STATE": "NY", "FIPS": "36", "ZIP": "14227", "ZIP2": " ", "PARCEL": 0.000000, "LATITUDE": 42.893590, "LONGITUDE": -78.782720, "GEOSOURCE": "GDT 2000 STREETS", "CREATEDATE": "2003\/04\/09 00:00:00", "CREATOR": "INDUS", "MODDATE": null, "ASSOC": "NS" }, "geometry": { "type": "Point", "coordinates": [ -78.78272, 42.893590000000131 ] } },
{ "type": "Feature", "properties": { "ID": "319", "NAME": "NS THOROUGHBRED BULK TRANSFER TERMINAL-BUFFALO-NY", "TYPE": "RAIL", "MODE_TYPE": "RAIL & TRUCK", "CITY": "BUFFALO", "STATE": "NY", "FIPS": "36", "ZIP": "14227", "ZIP2": " ", "PARCEL": 0.000000, "LATITUDE": 42.892830, "LONGITUDE": -78.784200, "GEOSOURCE": "GDT 2000 STREETS", "CREATEDATE": "2003\/04\/09 00:00:00", "CREATOR": "INDUS", "MODDATE": null, "ASSOC": "NS" }, "geometry": { "type": "Point", "coordinates": [ -78.7842, 42.89283 ] } },
{ "type": "Feature", "properties": { "ID": "320", "NAME": "NS CONNECTING LINE BULK TRANSFER TERMINAL-BROOKLYN", "TYPE": "RAIL", "MODE_TYPE": "RAIL & TRUCK", "CITY": "BROOKLYN", "STATE": "NY", "FIPS": "36", "ZIP": "11232", "ZIP2": " ", "PARCEL": 0.000000, "LATITUDE": 40.654320, "LONGITUDE": -74.015090, "GEOSOURCE": "GDT 2000 STREETS", "CREATEDATE": "2003\/04\/09 00:00:00", "CREATOR": "INDUS", "MODDATE": null, "ASSOC": "NYCH" }, "geometry": { "type": "Point", "coordinates": [ -74.01509, 40.65432 ] } },
{ "type": "Feature", "properties": { "ID": "324", "NAME": "TRANSPLASTICS, INC-ALBANY-NY", "TYPE": "RAIL", "MODE_TYPE": "RAIL & TRUCK", "CITY": "ALBANY", "STATE": "NY", "FIPS": "36", "ZIP": "54305", "ZIP2": " ", "PARCEL": 0.000000, "LATITUDE": 42.622460, "LONGITUDE": -73.767740, "GEOSOURCE": "GDT 2000 STREETS", "CREATEDATE": "2003\/04\/09 00:00:00", "CREATOR": "INDUS", "MODDATE": null, "ASSOC": "CSXT, CPRS" }, "geometry": { "type": "Point", "coordinates": [ -73.76774, 42.62246 ] } },
{ "type": "Feature", "properties": { "ID": "3328", "NAME": "Avlin Farm Store Elevator", "TYPE": "RAIL", "MODE_TYPE": "RAIL & TRUCK", "CITY": "Caledonia", "STATE": "NY", "FIPS": "36", "ZIP": "14423", "ZIP2": " ", "PARCEL": 0.000000, "LATITUDE": 42.918510, "LONGITUDE": -77.814460, "GEOSOURCE": "GDT 2001 STREETS", "CREATEDATE": "2003\/04\/09 00:00:00", "CREATOR": "INDUS", "MODDATE": null, "ASSOC": "GNWR" }, "geometry": { "type": "Point", "coordinates": [ -77.81446, 42.91851 ] } },
{ "type": "Feature", "properties": { "ID": "3329", "NAME": "Nestle Purina Petcare Co.", "TYPE": "RAIL", "MODE_TYPE": "RAIL & TRUCK", "CITY": "Dunkirk", "STATE": "NY", "FIPS": "36", "ZIP": "14048", "ZIP2": " ", "PARCEL": 0.000000, "LATITUDE": 42.490020, "LONGITUDE": -79.302690, "GEOSOURCE": "GDT 2001 STREETS", "CREATEDATE": "2003\/04\/09 00:00:00", "CREATOR": "INDUS", "MODDATE": null, "ASSOC": "CSXT (NS)" }, "geometry": { "type": "Point", "coordinates": [ -79.30269, 42.49002 ] } },
{ "type": "Feature", "properties": { "ID": "339", "NAME": "AIR CARGO PARTNERS", "TYPE": "AIR", "MODE_TYPE": "AIR & TRUCK", "CITY": "LAKE SUCCESS", "STATE": "NY", "FIPS": "36", "ZIP": "11042", "ZIP2": " ", "PARCEL": 0.000000, "LATITUDE": 40.755920, "LONGITUDE": -73.688720, "GEOSOURCE": "GDT 2000 STREETS", "CREATEDATE": "2003\/04\/09 00:00:00", "CREATOR": "INDUS", "MODDATE": null, "ASSOC": " " }, "geometry": { "type": "Point", "coordinates": [ -73.68872, 40.75592 ] } },
{ "type": "Feature", "properties": { "ID": "341", "NAME": "ADVANTAGE AIR EXPRESS", "TYPE": "AIR", "MODE_TYPE": "AIR & TRUCK", "CITY": "HAUPPAUGE", "STATE": "NY", "FIPS": "36", "ZIP": "11788", "ZIP2": " ", "PARCEL": 0.000000, "LATITUDE": 40.807630, "LONGITUDE": -73.242350, "GEOSOURCE": "GDT 2000 STREETS", "CREATEDATE": "2003\/04\/09 00:00:00", "CREATOR": "INDUS", "MODDATE": null, "ASSOC": " " }, "geometry": { "type": "Point", "coordinates": [ -73.24235, 40.80763 ] } },
{ "type": "Feature", "properties": { "ID": "353", "NAME": "BNSF-SYRACUSE-NY", "TYPE": "RAIL", "MODE_TYPE": "RAIL & TRUCK", "CITY": "EAST SYRACUSE", "STATE": "NY", "FIPS": "36", "ZIP": "13057", "ZIP2": " ", "PARCEL": 0.000000, "LATITUDE": 43.115700, "LONGITUDE": -76.035840, "GEOSOURCE": "GDT 2000 STREETS", "CREATEDATE": "2003\/04\/09 00:00:00", "CREATOR": "INDUS", "MODDATE": null, "ASSOC": " " }, "geometry": { "type": "Point", "coordinates": [ -76.03584, 43.115700000000118 ] } },
{ "type": "Feature", "properties": { "ID": "357", "NAME": "TRANSPLASTICS, INC.-ALBANY-NY", "TYPE": "RAIL", "MODE_TYPE": "RAIL & TRUCK", "CITY": "ALBANY", "STATE": "NY", "FIPS": "36", "ZIP": "12202", "ZIP2": " ", "PARCEL": 0.000000, "LATITUDE": 42.622460, "LONGITUDE": -73.767740, "GEOSOURCE": "GDT 2000 STREETS", "CREATEDATE": "2003\/04\/09 00:00:00", "CREATOR": "INDUS", "MODDATE": null, "ASSOC": "CSXT, CPRS" }, "geometry": { "type": "Point", "coordinates": [ -73.76774, 42.62246 ] } },
{ "type": "Feature", "properties": { "ID": "368", "NAME": "PORT OF BUFFALO", "TYPE": "PORT", "MODE_TYPE": "TRUCK - PORT - RAIL", "CITY": "BUFFALO", "STATE": "NY", "FIPS": "36", "ZIP": "14203", "ZIP2": " ", "PARCEL": 0.000000, "LATITUDE": 42.858150, "LONGITUDE": -78.870500, "GEOSOURCE": "GDT 2000 STREETS", "CREATEDATE": "2003\/04\/09 00:00:00", "CREATOR": "INDUS", "MODDATE": null, "ASSOC": " " }, "geometry": { "type": "Point", "coordinates": [ -78.8705, 42.85815 ] } },
{ "type": "Feature", "properties": { "ID": "3871", "NAME": "YELLOW-ALBANY-NY TERMINAL", "TYPE": "TRUCK", "MODE_TYPE": "TRUCK - PORT - RAIL", "CITY": "Albany", "STATE": "NY", "FIPS": "36", "ZIP": "12205", "ZIP2": " ", "PARCEL": 0.000000, "LATITUDE": 42.721070, "LONGITUDE": -73.865310, "GEOSOURCE": "GDT 2001 STREETS", "CREATEDATE": "2003\/04\/09 00:00:00", "CREATOR": "INDUS", "MODDATE": null, "ASSOC": " " }, "geometry": { "type": "Point", "coordinates": [ -73.86531, 42.72107 ] } },
{ "type": "Feature", "properties": { "ID": "3872", "NAME": "YELLOW-BINGHAMPTON-NY TERMINAL", "TYPE": "TRUCK", "MODE_TYPE": "TRUCK - PORT - RAIL", "CITY": "Conklin", "STATE": "NY", "FIPS": "36", "ZIP": "13748", "ZIP2": " ", "PARCEL": 0.000000, "LATITUDE": 42.070670, "LONGITUDE": -75.814580, "GEOSOURCE": "GDT 2001 STREETS", "CREATEDATE": "2003\/04\/09 00:00:00", "CREATOR": "INDUS", "MODDATE": null, "ASSOC": " " }, "geometry": { "type": "Point", "coordinates": [ -75.81458, 42.07067 ] } },
{ "type": "Feature", "properties": { "ID": "3874", "NAME": "YELLOW-BUFFALO-NY TERMINAL", "TYPE": "TRUCK", "MODE_TYPE": "TRUCK - PORT - RAIL", "CITY": "Tonawanda", "STATE": "NY", "FIPS": "36", "ZIP": " 1415", "ZIP2": " ", "PARCEL": 0.000000, "LATITUDE": 42.988900, "LONGITUDE": -78.889050, "GEOSOURCE": "GDT 2001 STREETS", "CREATEDATE": "2003\/04\/09 00:00:00", "CREATOR": "INDUS", "MODDATE": null, "ASSOC": " " }, "geometry": { "type": "Point", "coordinates": [ -78.88905, 42.9889 ] } },
{ "type": "Feature", "properties": { "ID": "3876", "NAME": "YELLOW-EAST ISLIP-NY TERMINAL", "TYPE": "TRUCK", "MODE_TYPE": "TRUCK - PORT - RAIL", "CITY": "Central Islip", "STATE": "NY", "FIPS": "36", "ZIP": " 1172", "ZIP2": " ", "PARCEL": 0.000000, "LATITUDE": 40.794620, "LONGITUDE": -73.170220, "GEOSOURCE": "GDT 2001 STREETS", "CREATEDATE": "2003\/04\/09 00:00:00", "CREATOR": "INDUS", "MODDATE": null, "ASSOC": " " }, "geometry": { "type": "Point", "coordinates": [ -73.17022, 40.79462 ] } },
{ "type": "Feature", "properties": { "ID": "3878", "NAME": "YELLOW-LONG ISLAND-NY TERMINAL", "TYPE": "TRUCK", "MODE_TYPE": "TRUCK - PORT - RAIL", "CITY": "Plainview", "STATE": "NY", "FIPS": "36", "ZIP": " 1180", "ZIP2": " ", "PARCEL": 0.000000, "LATITUDE": 40.787130, "LONGITUDE": -73.464610, "GEOSOURCE": "GDT 2001 STREETS", "CREATEDATE": "2003\/04\/09 00:00:00", "CREATOR": "INDUS", "MODDATE": null, "ASSOC": " " }, "geometry": { "type": "Point", "coordinates": [ -73.46461, 40.78713 ] } },
{ "type": "Feature", "properties": { "ID": "3879", "NAME": "YELLOW-MAYBROOK-NY TERMINAL", "TYPE": "TRUCK", "MODE_TYPE": "TRUCK - PORT - RAIL", "CITY": "Maybrook", "STATE": "NY", "FIPS": "36", "ZIP": "12543", "ZIP2": " ", "PARCEL": 0.000000, "LATITUDE": 41.502710, "LONGITUDE": -74.206670, "GEOSOURCE": "GDT 2001 STREETS", "CREATEDATE": "2003\/04\/09 00:00:00", "CREATOR": "INDUS", "MODDATE": null, "ASSOC": " " }, "geometry": { "type": "Point", "coordinates": [ -74.20667, 41.50271 ] } },
{ "type": "Feature", "properties": { "ID": "3881", "NAME": "YELLOW-MOUNT VERNON-NY TERMINAL", "TYPE": "TRUCK", "MODE_TYPE": "TRUCK - PORT - RAIL", "CITY": "Mount Vernon", "STATE": "NY", "FIPS": "36", "ZIP": " 1055", "ZIP2": " ", "PARCEL": 0.000000, "LATITUDE": 40.891670, "LONGITUDE": -73.826850, "GEOSOURCE": "GDT 2001 STREETS", "CREATEDATE": "2003\/04\/09 00:00:00", "CREATOR": "INDUS", "MODDATE": null, "ASSOC": " " }, "geometry": { "type": "Point", "coordinates": [ -73.82685, 40.89167 ] } },
{ "type": "Feature", "properties": { "ID": "3882", "NAME": "YELLOW-PLATTSBURGH-NY TERMINAL", "TYPE": "TRUCK", "MODE_TYPE": "TRUCK - PORT - RAIL", "CITY": "Plattsburgh", "STATE": "NY", "FIPS": "36", "ZIP": " 1290", "ZIP2": " ", "PARCEL": 0.000000, "LATITUDE": 44.673530, "LONGITUDE": -73.460640, "GEOSOURCE": "GDT 2001 STREETS", "CREATEDATE": "2003\/04\/09 00:00:00", "CREATOR": "INDUS", "MODDATE": null, "ASSOC": " " }, "geometry": { "type": "Point", "coordinates": [ -73.46064, 44.67353 ] } },
{ "type": "Feature", "properties": { "ID": "3884", "NAME": "YELLOW-QUEENS-NY TERMINAL", "TYPE": "TRUCK", "MODE_TYPE": "TRUCK - PORT - RAIL", "CITY": "Maspeth", "STATE": "NY", "FIPS": "36", "ZIP": " 1137", "ZIP2": " ", "PARCEL": 0.000000, "LATITUDE": 40.720770, "LONGITUDE": -73.917030, "GEOSOURCE": "GDT 2001 STREETS", "CREATEDATE": "2003\/04\/09 00:00:00", "CREATOR": "INDUS", "MODDATE": null, "ASSOC": " " }, "geometry": { "type": "Point", "coordinates": [ -73.91703, 40.72077000000013 ] } },
{ "type": "Feature", "properties": { "ID": "3885", "NAME": "YELLOW-ROCHESTER-NY TERMINAL", "TYPE": "TRUCK", "MODE_TYPE": "TRUCK - PORT - RAIL", "CITY": "Rochester", "STATE": "NY", "FIPS": "36", "ZIP": " 1460", "ZIP2": " ", "PARCEL": 0.000000, "LATITUDE": 43.173880, "LONGITUDE": -77.673210, "GEOSOURCE": "GDT 2001 STREETS", "CREATEDATE": "2003\/04\/09 00:00:00", "CREATOR": "INDUS", "MODDATE": null, "ASSOC": " " }, "geometry": { "type": "Point", "coordinates": [ -77.67321, 43.17388 ] } },
{ "type": "Feature", "properties": { "ID": "3887", "NAME": "YELLOW-SYRACUSE-NY TERMINAL", "TYPE": "TRUCK", "MODE_TYPE": "TRUCK - PORT - RAIL", "CITY": "East Syracuse", "STATE": "NY", "FIPS": "36", "ZIP": " 1305", "ZIP2": " ", "PARCEL": 0.000000, "LATITUDE": 43.109270, "LONGITUDE": -76.077160, "GEOSOURCE": "GDT 2001 STREETS", "CREATEDATE": "2003\/04\/09 00:00:00", "CREATOR": "INDUS", "MODDATE": null, "ASSOC": " " }, "geometry": { "type": "Point", "coordinates": [ -76.07716, 43.10927 ] } },
{ "type": "Feature", "properties": { "ID": "3986", "NAME": "J.B. HUNT-SYRACUSE-NY", "TYPE": "TRUCK", "MODE_TYPE": "RAIL & TRUCK", "CITY": "SYRACUSE", "STATE": "NY", "FIPS": "36", "ZIP": "13209", "ZIP2": " ", "PARCEL": 0.000000, "LATITUDE": 43.110110, "LONGITUDE": -76.293950, "GEOSOURCE": "GDT 2001 STREETS", "CREATEDATE": "2003\/04\/09 00:00:00", "CREATOR": "INDUS", "MODDATE": null, "ASSOC": "CSX" }, "geometry": { "type": "Point", "coordinates": [ -76.29395, 43.11011 ] } },
{ "type": "Feature", "properties": { "ID": "4134", "NAME": "USPS-PDC-PDF-MID ISLAND-NY", "TYPE": "TRUCK", "MODE_TYPE": "TRUCK & TRUCK", "CITY": "MID ISLAND", "STATE": "NY", "FIPS": "36", "ZIP": "11747", "ZIP2": " ", "PARCEL": 0.000000, "LATITUDE": 40.767660, "LONGITUDE": -73.411770, "GEOSOURCE": "GDT 2001 STREETS", "CREATEDATE": "2003\/04\/09 00:00:00", "CREATOR": "INDUS", "MODDATE": null, "ASSOC": " " }, "geometry": { "type": "Point", "coordinates": [ -73.41177, 40.76766 ] } },
{ "type": "Feature", "properties": { "ID": "4168", "NAME": "USPS-P AND DC-P AND DF-BRONX-NY", "TYPE": "TRUCK", "MODE_TYPE": "TRUCK & TRUCK", "CITY": "BRONX", "STATE": "NY", "FIPS": "36", "ZIP": "10451", "ZIP2": " ", "PARCEL": 0.000000, "LATITUDE": 40.829170, "LONGITUDE": -73.921480, "GEOSOURCE": "GDT 2001 STREETS", "CREATEDATE": "2003\/04\/09 00:00:00", "CREATOR": "INDUS", "MODDATE": null, "ASSOC": " " }, "geometry": { "type": "Point", "coordinates": [ -73.92148, 40.82917 ] } },
{ "type": "Feature", "properties": { "ID": "4169", "NAME": "USPS-P AND DC-P AND DF-BROOKLYN-NY", "TYPE": "TRUCK", "MODE_TYPE": "TRUCK & TRUCK", "CITY": "BROOKLYN", "STATE": "NY", "FIPS": "36", "ZIP": "11256", "ZIP2": " ", "PARCEL": 0.000000, "LATITUDE": 40.662050, "LONGITUDE": -73.860230, "GEOSOURCE": "GDT 2001 STREETS", "CREATEDATE": "2003\/04\/09 00:00:00", "CREATOR": "INDUS", "MODDATE": null, "ASSOC": " " }, "geometry": { "type": "Point", "coordinates": [ -73.86023, 40.662050000000136 ] } },
{ "type": "Feature", "properties": { "ID": "4209", "NAME": "USPS-P AND DC-P AND DF-ELMIRA-NY", "TYPE": "TRUCK", "MODE_TYPE": "TRUCK & TRUCK", "CITY": "ELMIRA", "STATE": "NY", "FIPS": "36", "ZIP": "14901", "ZIP2": " ", "PARCEL": 0.000000, "LATITUDE": 42.114870, "LONGITUDE": -76.805460, "GEOSOURCE": "GDT 2001 STREETS", "CREATEDATE": "2003\/04\/09 00:00:00", "CREATOR": "INDUS", "MODDATE": null, "ASSOC": " " }, "geometry": { "type": "Point", "coordinates": [ -76.80546, 42.11487 ] } },
{ "type": "Feature", "properties": { "ID": "4220", "NAME": "USPS-P AND DC-P AND DF-FLUSHING-NY", "TYPE": "TRUCK", "MODE_TYPE": "TRUCK & TRUCK", "CITY": "FLUSHING", "STATE": "NY", "FIPS": "36", "ZIP": "11351", "ZIP2": " ", "PARCEL": 0.000000, "LATITUDE": 40.781630, "LONGITUDE": -73.826170, "GEOSOURCE": "GDT 2001 STREETS", "CREATEDATE": "2003\/04\/09 00:00:00", "CREATOR": "INDUS", "MODDATE": null, "ASSOC": " " }, "geometry": { "type": "Point", "coordinates": [ -73.82617, 40.781630000000121 ] } },
{ "type": "Feature", "properties": { "ID": "4243", "NAME": "USPS-PDC-PDF-NEW YORK-NY-90 CHURCH S", "TYPE": "TRUCK", "MODE_TYPE": "TRUCK & TRUCK", "CITY": "NEW YORK", "STATE": "NY", "FIPS": "36", "ZIP": "10007", "ZIP2": " ", "PARCEL": 0.000000, "LATITUDE": 40.712970, "LONGITUDE": -74.009450, "GEOSOURCE": "GDT 2001 STREETS", "CREATEDATE": "2003\/04\/09 00:00:00", "CREATOR": "INDUS", "MODDATE": null, "ASSOC": " " }, "geometry": { "type": "Point", "coordinates": [ -74.00945, 40.71297 ] } },
{ "type": "Feature", "properties": { "ID": "4301", "NAME": "USPS-P AND DC-P AND DF-STATEN ISLAND-NY", "TYPE": "TRUCK", "MODE_TYPE": "TRUCK & TRUCK", "CITY": "STATEN ISLAND", "STATE": "NY", "FIPS": "36", "ZIP": "10314", "ZIP2": " ", "PARCEL": 0.000000, "LATITUDE": 40.614880, "LONGITUDE": -74.122860, "GEOSOURCE": "GDT 2001 STREETS", "CREATEDATE": "2003\/04\/09 00:00:00", "CREATOR": "INDUS", "MODDATE": null, "ASSOC": " " }, "geometry": { "type": "Point", "coordinates": [ -74.12286, 40.61488 ] } },
{ "type": "Feature", "properties": { "ID": "4317", "NAME": "USPS-P AND DC-P AND DF-UTICA-NY", "TYPE": "TRUCK", "MODE_TYPE": "TRUCK & TRUCK", "CITY": "UTICA", "STATE": "NY", "FIPS": "36", "ZIP": "13501", "ZIP2": " ", "PARCEL": 0.000000, "LATITUDE": 43.103390, "LONGITUDE": -75.225860, "GEOSOURCE": "GDT 2001 STREETS", "CREATEDATE": "2003\/04\/09 00:00:00", "CREATOR": "INDUS", "MODDATE": null, "ASSOC": " " }, "geometry": { "type": "Point", "coordinates": [ -75.22586, 43.10339 ] } },
{ "type": "Feature", "properties": { "ID": "4337", "NAME": "USPS-REMOTE ENC-ALBANY-NY", "TYPE": "TRUCK", "MODE_TYPE": "TRUCK & TRUCK", "CITY": "ALBANY", "STATE": "NY", "FIPS": "36", "ZIP": "12047", "ZIP2": " ", "PARCEL": 0.000000, "LATITUDE": 42.798180, "LONGITUDE": -73.732660, "GEOSOURCE": "GDT 2001 STREETS", "CREATEDATE": "2003\/04\/09 00:00:00", "CREATOR": "INDUS", "MODDATE": null, "ASSOC": " " }, "geometry": { "type": "Point", "coordinates": [ -73.732659999999896, 42.79818 ] } },
{ "type": "Feature", "properties": { "ID": "4344", "NAME": "USPS-REMOTE ENC-SYRACUSE-NY", "TYPE": "TRUCK", "MODE_TYPE": "TRUCK & TRUCK", "CITY": "SYRACUSE", "STATE": "NY", "FIPS": "36", "ZIP": "13057", "ZIP2": " ", "PARCEL": 0.000000, "LATITUDE": 43.115700, "LONGITUDE": -76.035840, "GEOSOURCE": "GDT 2001 STREETS", "CREATEDATE": "2003\/04\/09 00:00:00", "CREATOR": "INDUS", "MODDATE": null, "ASSOC": " " }, "geometry": { "type": "Point", "coordinates": [ -76.03584, 43.115700000000118 ] } },
{ "type": "Feature", "properties": { "ID": "541", "NAME": "ISLAND TRANSPORTATION CORP.-WEST BABYLON-NY", "TYPE": "TRUCK", "MODE_TYPE": "RAIL & TRUCK", "CITY": "WEST BABYLON", "STATE": "NY", "FIPS": "36", "ZIP": "11704", "ZIP2": " ", "PARCEL": 0.000000, "LATITUDE": 40.733810, "LONGITUDE": -73.376280, "GEOSOURCE": "GDT 2000 STREETS", "CREATEDATE": "2003\/04\/09 00:00:00", "CREATOR": "INDUS", "MODDATE": null, "ASSOC": " " }, "geometry": { "type": "Point", "coordinates": [ -73.37628, 40.733810000000119 ] } },
{ "type": "Feature", "properties": { "ID": "626", "NAME": "TEAM FREIGHT, INC.\/TEAM DISTRIBUTION, INC.-BUFFALO", "TYPE": "RAIL", "MODE_TYPE": "RAIL & TRUCK", "CITY": "BUFFALO", "STATE": "NY", "FIPS": "36", "ZIP": "14204", "ZIP2": " ", "PARCEL": 0.000000, "LATITUDE": 42.865220, "LONGITUDE": -78.859890, "GEOSOURCE": "GDT 2000 STREETS", "CREATEDATE": "2003\/04\/09 00:00:00", "CREATOR": "INDUS", "MODDATE": null, "ASSOC": "BNSF" }, "geometry": { "type": "Point", "coordinates": [ -78.85989, 42.86522 ] } },
{ "type": "Feature", "properties": { "ID": "91", "NAME": "PORT OF NEW YORK AND NEW JERSEY", "TYPE": "RAIL", "MODE_TYPE": "TRUCK - PORT - RAIL", "CITY": "BROOKLYN", "STATE": "NY", "FIPS": "36", "ZIP": "11231", "ZIP2": " ", "PARCEL": 0.000000, "LATITUDE": 40.681880, "LONGITUDE": -74.005070, "GEOSOURCE": "GDT 2000 STREETS", "CREATEDATE": "2003\/04\/09 00:00:00", "CREATOR": "INDUS", "MODDATE": null, "ASSOC": " " }, "geometry": { "type": "Point", "coordinates": [ -74.00507, 40.68188 ] } },
{ "type": "Feature", "properties": { "ID": "935", "NAME": "JFK INTERNATIONAL AIRPORT", "TYPE": "AIR", "MODE_TYPE": "AIR & TRUCK", "CITY": "JAMAICA", "STATE": "NY", "FIPS": "36", "ZIP": "11430", "ZIP2": " ", "PARCEL": 0.000000, "LATITUDE": 40.663940, "LONGITUDE": -73.806460, "GEOSOURCE": "GDT 2000 STREETS", "CREATEDATE": "2003\/04\/09 00:00:00", "CREATOR": "INDUS", "MODDATE": null, "ASSOC": " " }, "geometry": { "type": "Point", "coordinates": [ -73.80646, 40.66394 ] } },
{ "type": "Feature", "properties": { "ID": "963", "NAME": "LAGUARDIA AIRPORT", "TYPE": "AIR", "MODE_TYPE": "AIR & TRUCK", "CITY": "FLUSHING", "STATE": "NY", "FIPS": "36", "ZIP": "11371", "ZIP2": " ", "PARCEL": 0.000000, "LATITUDE": 40.777000, "LONGITUDE": -73.873000, "GEOSOURCE": "NTAD2002AIRPORT", "CREATEDATE": "2003\/04\/09 00:00:00", "CREATOR": "INDUS", "MODDATE": null, "ASSOC": " " }, "geometry": { "type": "Point", "coordinates": [ -73.873, 40.777 ] } },
{ "type": "Feature", "properties": { "ID": null, "NAME": null, "TYPE": null, "MODE_TYPE": "RAIL & TRUCK", "CITY": "MECHANICVILLE", "STATE": "NY", "FIPS": null, "ZIP": null, "ZIP2": null, "PARCEL": null, "LATITUDE": null, "LONGITUDE": null, "GEOSOURCE": null, "CREATEDATE": null, "CREATOR": null, "MODDATE": null, "ASSOC": null }, "geometry": { "type": "Point", "coordinates": [ -73.71225800334156, 42.915327554674661 ] } }
]
}
