{
"type": "FeatureCollection",
"crs": { "type": "name", "properties": { "name": "urn:ogc:def:crs:OGC:1.3:CRS84" } },
                                                                                
"features": [
{ "type": "Feature", "properties": { "ID": "18", "NAME": "NORFOLK SOUTHERN TBT", "TYPE": "TRANSLOAD", "MODE_TYPE": "RAIL & TRUCK", "CITY": "BUFFALO", "STATE": "NY", "FIPS": "36", "ZIP": "14227", "MATCH": 1 }, "geometry": { "type": "Point", "coordinates": [ -78.78272, 42.893590000000131 ] } },
{ "type": "Feature", "properties": { "ID": "19", "NAME": "CSX TRANSFLO ALBANY", "TYPE": "TRANSLOAD", "MODE_TYPE": "RAIL & TRUCK", "CITY": "ALBANY", "STATE": "NY", "FIPS": "36", "ZIP": "12205", "MATCH": 1 }, "geometry": { "type": "Point", "coordinates": [ -73.77867, 42.682970000000125 ] } },
{ "type": "Feature", "properties": { "ID": "8", "NAME": "CSX BUFFALO ICTF", "TYPE": "RAIL INTERMODAL", "MODE_TYPE": "RAIL & TRUCK", "CITY": "BLASDALL", "STATE": "NY", "FIPS": "36", "ZIP": "14219", "MATCH": 1 }, "geometry": { "type": "Point", "coordinates": [ -78.83703, 42.79756 ] } },
{ "type": "Feature", "properties": { "ID": "14", "NAME": "NORFOLK SOUTHERN BISON YARD", "TYPE": "RAIL INTERMODAL", "MODE_TYPE": "RAIL & TRUCK", "CITY": "BUFFALO", "STATE": "NY", "FIPS": "36", "ZIP": "14227", "MATCH": 1 }, "geometry": { "type": "Point", "coordinates": [ -78.7842, 42.89283 ] } },
{ "type": "Feature", "properties": { "ID": "9", "NAME": "CSX SELKIRK YARD", "TYPE": "RAIL INTERMODAL", "MODE_TYPE": "RAIL & TRUCK", "CITY": "SELKIRK", "STATE": "NY", "FIPS": "36", "ZIP": "12158", "MATCH": 1 }, "geometry": { "type": "Point", "coordinates": [ -73.84678072996951, 42.55950764749241 ] } },
{ "type": "Feature", "properties": { "ID": "10", "NAME": "NYS&W Yard", "TYPE": "TRANSLOAD", "MODE_TYPE": "RAIL & TRUCK", "CITY": "BINGHAMTON", "STATE": "NY", "FIPS": "36", "ZIP": "13904", "MATCH": 1 }, "geometry": { "type": "Point", "coordinates": [ -75.893363653953145, 42.114439158341156 ] } },
{ "type": "Feature", "properties": { "ID": "20", "NAME": "D&M RELOAD\/NICHOLS SIDING", "TYPE": "TRANSLOAD", "MODE_TYPE": "TRUCK - PORT - RAIL", "CITY": "MASPETH", "STATE": "NY", "FIPS": "36", "ZIP": "11378", "MATCH": 1 }, "geometry": { "type": "Point", "coordinates": [ -73.916047162677387, 40.719559496983209 ] } },
{ "type": "Feature", "properties": { "ID": "15", "NAME": "BRONX TERMINAL MARKET", "TYPE": "RAIL TERMINAL", "MODE_TYPE": "RAIL & TRUCK", "CITY": "BRONX", "STATE": "NY", "FIPS": "36", "ZIP": "10451", "MATCH": 1 }, "geometry": { "type": "Point", "coordinates": [ -73.930006487059813, 40.823350374169195 ] } },
{ "type": "Feature", "properties": { "ID": "32", "NAME": "NYCT NY CONTAINER TERMINAL", "TYPE": "WATER", "MODE_TYPE": "TRUCK - PORT - RAIL", "CITY": "STATEN ISLAND", "STATE": "NY", "FIPS": "36", "ZIP": "10303", "MATCH": 1 }, "geometry": { "type": "Point", "coordinates": [ -74.183069255555552, 40.637333284279066 ] } },
{ "type": "Feature", "properties": { "ID": "33", "NAME": "SOUTH BROOKLYN MARINE TERMINAL", "TYPE": "WATER", "MODE_TYPE": "TRUCK - PORT - RAIL", "CITY": "BROOKLYN", "STATE": "NY", "FIPS": "36", "ZIP": "11232", "MATCH": 1 }, "geometry": { "type": "Point", "coordinates": [ -74.011040507408893, 40.658004043740334 ] } },
{ "type": "Feature", "properties": { "ID": "35", "NAME": "65TH STREET INTERMODAL TERMINAL", "TYPE": "WATER", "MODE_TYPE": "TRUCK - PORT - RAIL", "CITY": "BROOKLYN", "STATE": "NY", "FIPS": "36", "ZIP": "11220", "MATCH": 1 }, "geometry": { "type": "Point", "coordinates": [ -74.030152080061953, 40.644897016816628 ] } },
{ "type": "Feature", "properties": { "ID": "21", "NAME": "HUNTS POINT FOOD DISTRIBUTION CENTER", "TYPE": "TRANSLOAD", "MODE_TYPE": "RAIL & TRUCK", "CITY": "BRONX", "STATE": "NY", "FIPS": "36", "ZIP": "10474", "MATCH": 1 }, "geometry": { "type": "Point", "coordinates": [ -73.871899135434603, 40.806763360680407 ] } },
{ "type": "Feature", "properties": { "ID": "22", "NAME": "CSX TRANSFLO BUFFALO", "TYPE": "TRANSLOAD", "MODE_TYPE": "RAIL & TRUCK", "CITY": "BUFFALO", "STATE": "NY", "FIPS": "36", "ZIP": "14206", "MATCH": 1 }, "geometry": { "type": "Point", "coordinates": [ -78.824234659273486, 42.885198012803244 ] } },
{ "type": "Feature", "properties": { "ID": "23", "NAME": "GUILDERLAND CENTER", "TYPE": "TRANSLOAD", "MODE_TYPE": "RAIL & TRUCK", "CITY": "ALBANY", "STATE": "NY", "FIPS": "36", "ZIP": "12009", "MATCH": 1 }, "geometry": { "type": "Point", "coordinates": [ -73.962113868744837, 42.697657242061609 ] } },
{ "type": "Feature", "properties": { "ID": "24", "NAME": "RSI LOGISTICS", "TYPE": "TRANSLOAD", "MODE_TYPE": "RAIL & TRUCK", "CITY": "LACKAWANNA", "STATE": "NY", "FIPS": "36", "ZIP": "14218", "MATCH": 1 }, "geometry": { "type": "Point", "coordinates": [ -78.844779670255093, 42.812951893538468 ] } },
{ "type": "Feature", "properties": { "ID": "25", "NAME": "NY & ATLANTIC RAILWAY\/LONG ISLAND CITY RAIL", "TYPE": "TRANSLOAD", "MODE_TYPE": "RAIL & TRUCK", "CITY": "LONG ISLAND CITY", "STATE": "NY", "FIPS": "36", "ZIP": "11101", "MATCH": 1 }, "geometry": { "type": "Point", "coordinates": [ -73.950586935324793, 40.739511748038979 ] } },
{ "type": "Feature", "properties": { "ID": "26", "NAME": "SAVAGE SERVICES CORP", "TYPE": "TRANSLOAD", "MODE_TYPE": "RAIL & TRUCK", "CITY": "ROCHESTER", "STATE": "NY", "FIPS": "36", "ZIP": "14609", "MATCH": 1 }, "geometry": { "type": "Point", "coordinates": [ -77.573372480076898, 43.157840810806533 ] } },
{ "type": "Feature", "properties": { "ID": "16", "NAME": "CSX DEWITT YARD", "TYPE": "RAIL INTERMODAL", "MODE_TYPE": "RAIL & TRUCK", "CITY": "EAST SYRACUSE", "STATE": "NY", "FIPS": "36", "ZIP": "13507", "MATCH": 1 }, "geometry": { "type": "Point", "coordinates": [ -76.027908270424973, 43.07353113920351 ] } },
{ "type": "Feature", "properties": { "ID": "11", "NAME": "HARLEM RIVER INTERMODAL YARD", "TYPE": "TRANSLOAD", "MODE_TYPE": "RAIL & TRUCK", "CITY": "BRONX", "STATE": "NY", "FIPS": "36", "ZIP": "10454", "MATCH": 1 }, "geometry": { "type": "Point", "coordinates": [ -73.930542034015048, 40.807588819074113 ] } },
{ "type": "Feature", "properties": { "ID": "27", "NAME": "CSX TRANSFLO SYRACUSE", "TYPE": "TRANSLOAD", "MODE_TYPE": "RAIL & TRUCK", "CITY": "EAST SYRACUSE", "STATE": "NY", "FIPS": "36", "ZIP": "13507", "MATCH": 1 }, "geometry": { "type": "Point", "coordinates": [ -76.068445747642841, 43.062552717467327 ] } },
{ "type": "Feature", "properties": { "ID": "12", "NAME": "NORFOLK SOUTHERN ALBANY", "TYPE": "RAIL INTERMODAL", "MODE_TYPE": "RAIL & TRUCK", "CITY": "MECHANICVILLE", "STATE": "NY", "FIPS": "36", "ZIP": "12118", "MATCH": 1 }, "geometry": { "type": "Point", "coordinates": [ -73.70518017562182, 42.915704753032514 ] } },
{ "type": "Feature", "properties": { "ID": "7", "NAME": "SOUTH BROOKLYN RAIL YARD", "TYPE": "RAIL TERMINAL", "MODE_TYPE": "RAIL & TRUCK", "CITY": "BROOKLYN", "STATE": "NY", "FIPS": "36", "ZIP": "11232", "MATCH": 1 }, "geometry": { "type": "Point", "coordinates": [ -74.017104402279131, 40.65428032240726 ] } },
{ "type": "Feature", "properties": { "ID": "35", "NAME": "65TH STREET LIRR BAY RIDGE TERMINAL", "TYPE": "TRANSLOAD", "MODE_TYPE": "TRUCK - PORT - RAIL", "CITY": "BROOKLYN", "STATE": "NY", "FIPS": "36", "ZIP": "11220", "MATCH": 1 }, "geometry": { "type": "Point", "coordinates": [ -74.028677892144628, 40.642432869667346 ] } },
{ "type": "Feature", "properties": { "ID": "7", "NAME": "BUSH TERMINAL 51ST ST RAILYARD", "TYPE": "TRANSLOAD", "MODE_TYPE": "RAIL & TRUCK", "CITY": "BROOKLYN", "STATE": "NY", "FIPS": "36", "ZIP": "11232", "MATCH": 1 }, "geometry": { "type": "Point", "coordinates": [ -74.021341450234843, 40.650825480179151 ] } },
{ "type": "Feature", "properties": { "ID": "31", "NAME": "BROOKHAVEN RAIL TERMINAL", "TYPE": "TRANSLOAD", "MODE_TYPE": "RAIL & TRUCK", "CITY": "YAPHANK", "STATE": "NY", "FIPS": "36", "ZIP": "11763", "MATCH": 1 }, "geometry": { "type": "Point", "coordinates": [ -72.939151848293022, 40.824064207717697 ] } }
]
}
