{
"type": "FeatureCollection",
"crs": { "type": "name", "properties": { "name": "urn:ogc:def:crs:OGC:1.3:CRS84" } },
                                                                                
"features": [
{ "type": "Feature", "properties": { "OBJECTID": 1, "OID_": 0, "Name": "1-1140 - CONCORD TERMINAL CORP.", "Type": "Petroleum Product Terminal", "Site_Name": "CONCORD TERMINAL CORP.", "Operator": "CONCORD TERMINAL CORP." }, "geometry": { "type": "Point", "coordinates": [ -73.743647770028531, 40.630053519754199, 0.0 ] } },
{ "type": "Feature", "properties": { "OBJECTID": 13, "OID_": 0, "Name": "2-1860 - ASTORIA ENERGY LLC  and  ASTORIA ENERGY II LLC", "Type": "Petroleum Product Terminal", "Site_Name": "ASTORIA ENERGY LLC & ASTORIA ENERGY II LLC", "Operator": "ASTORIA ENERGY LLC & ASTORIA ENERGY II LLC" }, "geometry": { "type": "Point", "coordinates": [ -73.898352869789051, 40.7813537502754, 0.0 ] } },
{ "type": "Feature", "properties": { "OBJECTID": 15, "OID_": 0, "Name": "2-2380 - ALLIED NEW YORK SERVICES, INC.", "Type": "Petroleum Product Terminal", "Site_Name": "ALLIED NEW YORK SERVICES, INC.", "Operator": "ALLIED NEW YORK SERVICES, INC." }, "geometry": { "type": "Point", "coordinates": [ -73.801223989795233, 40.645185839854662, 0.0 ] } },
{ "type": "Feature", "properties": { "OBJECTID": 24, "OID_": 0, "Name": "4-1480 - I.P.T. LLC", "Type": "Petroleum Product Terminal", "Site_Name": "I.P.T. LLC", "Operator": "I.P.T. LLC" }, "geometry": { "type": "Point", "coordinates": [ -73.756088379674964, 42.594824689807638, 0.0 ] } },
{ "type": "Feature", "properties": { "OBJECTID": 27, "OID_": 0, "Name": "4-1760 - PECKHAM MATERIALS CORP.", "Type": "Petroleum Product Terminal", "Site_Name": "PECKHAM MATERIALS CORP.", "Operator": "PECKHAM MATERIALS CORP." }, "geometry": { "type": "Point", "coordinates": [ -73.803741640064572, 42.268384820103392, 0.0 ] } },
{ "type": "Feature", "properties": { "OBJECTID": 30, "OID_": 0, "Name": "4-3380 - GORMAN TERMINALS LLC", "Type": "Petroleum Product Terminal", "Site_Name": "GORMAN TERMINALS LLC", "Operator": "GORMAN TERMINALS LLC" }, "geometry": { "type": "Point", "coordinates": [ -73.748722969889116, 42.631099420102203, 0.0 ] } },
{ "type": "Feature", "properties": { "OBJECTID": 33, "OID_": 0, "Name": "6-1280 - DEFENSE FUEL SUPPORT POINT VERONA", "Type": "Petroleum Product Terminal", "Site_Name": "DEFENSE FUEL SUPPORT POINT VERONA", "Operator": "DEFENSE FUEL SUPPORT POINT VERONA" }, "geometry": { "type": "Point", "coordinates": [ -75.591364830122757, 43.126747960350144, 0.0 ] } },
{ "type": "Feature", "properties": { "OBJECTID": 34, "OID_": 0, "Name": "6-1440 - MOHAWK HOME COMFORT SERVICES", "Type": "Petroleum Product Terminal", "Site_Name": "MOHAWK HOME COMFORT SERVICES", "Operator": "MOHAWK HOME COMFORT SERVICES" }, "geometry": { "type": "Point", "coordinates": [ -75.247507929747144, 43.12832590991286, 0.0 ] } },
{ "type": "Feature", "properties": { "OBJECTID": 36, "OID_": 0, "Name": "7-1120 - SOUTH OSWEGO TERMINAL", "Type": "Petroleum Product Terminal", "Site_Name": "SOUTH OSWEGO TERMINAL", "Operator": "SOUTH OSWEGO TERMINAL" }, "geometry": { "type": "Point", "coordinates": [ -76.517374079849844, 43.405930610409371, 0.0 ] } },
{ "type": "Feature", "properties": { "OBJECTID": 37, "OID_": 0, "Name": "7-1180 - BUCKEYE TERMINALS LLC - BINGHAMTON TERMINAL", "Type": "Petroleum Product Terminal", "Site_Name": "BUCKEYE TERMINALS LLC - BINGHAMTON TERMINAL", "Operator": "BUCKEYE TERMINALS LLC - BINGHAMTON TERMINAL" }, "geometry": { "type": "Point", "coordinates": [ -75.993571590256636, 42.104709900241744, 0.0 ] } },
{ "type": "Feature", "properties": { "OBJECTID": 42, "OID_": 0, "Name": "7-2300 - POLKVILLE ASPHALT STORAGE FACILITY", "Type": "Petroleum Product Terminal", "Site_Name": "POLKVILLE ASPHALT STORAGE FACILITY", "Operator": "POLKVILLE ASPHALT STORAGE FACILITY" }, "geometry": { "type": "Point", "coordinates": [ -76.131936020131207, 42.586821679576929, 0.0 ] } },
{ "type": "Feature", "properties": { "OBJECTID": null, "OID_": null, "Name": null, "Type": "Natural Gas Market Hub", "Site_Name": "Avoca Hub", "Operator": "Bowdin Storage Services" }, "geometry": { "type": "Point", "coordinates": [ -77.460997328863584, 42.440091546487736, 0.0 ] } },
{ "type": "Feature", "properties": { "OBJECTID": null, "OID_": null, "Name": null, "Type": "Natural Gas Market Hub", "Site_Name": "Iroquois Center", "Operator": "Iroquois Gas Trans Co" }, "geometry": { "type": "Point", "coordinates": [ -74.178498370003751, 42.658091377015467, 0.0 ] } },
{ "type": "Feature", "properties": { "OBJECTID": null, "OID_": null, "Name": null, "Type": "Petroleum Product Terminal", "Site_Name": "OSWEGO", "Operator": "SPRAGUE OPERATING RESOURCES LLC" }, "geometry": { "type": "Point", "coordinates": [ -76.514000000699411, 43.461999999900115, 0.0 ] } },
{ "type": "Feature", "properties": { "OBJECTID": null, "OID_": null, "Name": null, "Type": "Petroleum Product Terminal", "Site_Name": "RENSELLAER", "Operator": "SPRAGUE OPERATING RESOURCES LLC" }, "geometry": { "type": "Point", "coordinates": [ -73.749100000764372, 42.625800000369793, 0.0 ] } },
{ "type": "Feature", "properties": { "OBJECTID": null, "OID_": null, "Name": null, "Type": "Petroleum Product Terminal", "Site_Name": "MT VERNON", "Operator": "SPRAGUE OPERATING RESOURCES LLC" }, "geometry": { "type": "Point", "coordinates": [ -73.822, 40.896900000234893, 0.0 ] } },
{ "type": "Feature", "properties": { "OBJECTID": null, "OID_": null, "Name": null, "Type": "Petroleum Product Terminal", "Site_Name": "PORT MORRIS", "Operator": "SPRAGUE OPERATING RESRCS LLC" }, "geometry": { "type": "Point", "coordinates": [ -73.907000000549544, 40.802, 0.0 ] } },
{ "type": "Feature", "properties": { "OBJECTID": null, "OID_": null, "Name": null, "Type": "Petroleum Product Terminal", "Site_Name": "ALBANY", "Operator": "PETROLEUM FUEL AND TERMINAL COMPANY" }, "geometry": { "type": "Point", "coordinates": [ -73.74899999975014, 42.627300000294838, 0.0 ] } },
{ "type": "Feature", "properties": { "OBJECTID": null, "OID_": null, "Name": null, "Type": "Petroleum Product Terminal", "Site_Name": "GRAND STREET", "Operator": "BAYSIDE FUEL OIL DEPOT CORP" }, "geometry": { "type": "Point", "coordinates": [ -73.931999999600237, 40.714099999715245, 0.0 ] } },
{ "type": "Feature", "properties": { "OBJECTID": null, "OID_": null, "Name": null, "Type": "Petroleum Product Terminal", "Site_Name": "SHORE PARKWAY", "Operator": "BAYSIDE FUEL OIL DEPOT CORP" }, "geometry": { "type": "Point", "coordinates": [ -73.995800000069892, 40.592699999605372, 0.0 ] } },
{ "type": "Feature", "properties": { "OBJECTID": null, "OID_": null, "Name": null, "Type": "Petroleum Product Terminal", "Site_Name": "SMITH STREET", "Operator": "BAYSIDE FUEL OIL DEPOT CORP" }, "geometry": { "type": "Point", "coordinates": [ -73.998300000244797, 40.673499999825196, 0.0 ] } },
{ "type": "Feature", "properties": { "OBJECTID": null, "OID_": null, "Name": null, "Type": "Petroleum Product Terminal", "Site_Name": "BROOKLYN", "Operator": "BP PRODUCTS NORTH AMERICA" }, "geometry": { "type": "Point", "coordinates": [ -73.938099999415385, 40.728200000629556, 0.0 ] } },
{ "type": "Feature", "properties": { "OBJECTID": null, "OID_": null, "Name": null, "Type": "Petroleum Product Terminal", "Site_Name": "BREWERTON TERMINAL", "Operator": "BUCKEYE TERMINALS LLC" }, "geometry": { "type": "Point", "coordinates": [ -76.140499999575297, 43.237800000369759, 0.0 ] } },
{ "type": "Feature", "properties": { "OBJECTID": null, "OID_": null, "Name": null, "Type": "Petroleum Product Terminal", "Site_Name": "MARCY TERMINAL", "Operator": "BUCKEYE TERMINALS LLC" }, "geometry": { "type": "Point", "coordinates": [ -75.253400000009947, 43.13230000054466, 0.0 ] } },
{ "type": "Feature", "properties": { "OBJECTID": null, "OID_": null, "Name": null, "Type": "Petroleum Product Terminal", "Site_Name": "ROCHESTER NORTH TERMINAL", "Operator": "BUCKEYE TERMINALS LLC" }, "geometry": { "type": "Point", "coordinates": [ -77.656100000114861, 43.130899999835151, 0.0 ] } },
{ "type": "Feature", "properties": { "OBJECTID": null, "OID_": null, "Name": null, "Type": "Petroleum Product Terminal", "Site_Name": "UTICA TERMINAL", "Operator": "BUCKEYE TERMINALS LLC" }, "geometry": { "type": "Point", "coordinates": [ -75.218499999475341, 43.107000000249855, 0.0 ] } },
{ "type": "Feature", "properties": { "OBJECTID": null, "OID_": null, "Name": null, "Type": "Petroleum Product Terminal", "Site_Name": "VESTAL TERMINAL", "Operator": "BUCKEYE TERMINALS LLC" }, "geometry": { "type": "Point", "coordinates": [ -76.004999999450376, 42.099800000269852, 0.0 ] } },
{ "type": "Feature", "properties": { "OBJECTID": null, "OID_": null, "Name": null, "Type": "Petroleum Product Terminal", "Site_Name": "BUFFALO TERMINAL", "Operator": "BUCKEYE TERMINALS LLC" }, "geometry": { "type": "Point", "coordinates": [ -78.831399999910047, 42.86580000007001, 0.0 ] } },
{ "type": "Feature", "properties": { "OBJECTID": null, "OID_": null, "Name": null, "Type": "Petroleum Product Terminal", "Site_Name": "ROCHESTER II SOUTH", "Operator": "BUCKEYE TERMINALS LLC" }, "geometry": { "type": "Point", "coordinates": [ -77.654000000399662, 43.130899999835151, 0.0 ] } },
{ "type": "Feature", "properties": { "OBJECTID": null, "OID_": null, "Name": null, "Type": "Petroleum Product Terminal", "Site_Name": "ROSETON", "Operator": "BUCKEYE TERMINALS LLC" }, "geometry": { "type": "Point", "coordinates": [ -73.979600000339701, 41.564699999605352, 0.0 ] } },
{ "type": "Feature", "properties": { "OBJECTID": null, "OID_": null, "Name": null, "Type": "Petroleum Product Terminal", "Site_Name": "ROCHESTER WEST", "Operator": "BUCKEYE TERMINALS LLC" }, "geometry": { "type": "Point", "coordinates": [ -77.679100000464587, 43.164700000005041, 0.0 ] } },
{ "type": "Feature", "properties": { "OBJECTID": null, "OID_": null, "Name": null, "Type": "Petroleum Product Terminal", "Site_Name": "BROOKLYN", "Operator": "BUCKEYE TERMINALS LLC" }, "geometry": { "type": "Point", "coordinates": [ -74.002400000459602, 40.668899999935093, 0.0 ] } },
{ "type": "Feature", "properties": { "OBJECTID": null, "OID_": null, "Name": null, "Type": "Petroleum Product Terminal", "Site_Name": "RENSSELAER", "Operator": "BUCKEYE TERMINALS LLC" }, "geometry": { "type": "Point", "coordinates": [ -73.752199999830111, 42.609900000084963, 0.0 ] } },
{ "type": "Feature", "properties": { "OBJECTID": null, "OID_": null, "Name": null, "Type": "Petroleum Product Terminal", "Site_Name": "BRONX", "Operator": "BUCKEYE TERMINALS LLC" }, "geometry": { "type": "Point", "coordinates": [ -73.902499999875033, 40.806300000444708, 0.0 ] } },
{ "type": "Feature", "properties": { "OBJECTID": null, "OID_": null, "Name": null, "Type": "Petroleum Product Terminal", "Site_Name": "ALBANY", "Operator": "BUCKEYE ALBANY TERMINAL LLC" }, "geometry": { "type": "Point", "coordinates": [ -73.763999999900022, 42.618000000399775, 0.0 ] } },
{ "type": "Feature", "properties": { "OBJECTID": null, "OID_": null, "Name": null, "Type": "Petroleum Product Terminal", "Site_Name": "LAWRENCE BLENDING TERMINAL", "Operator": "CARBO INDUSTRIES" }, "geometry": { "type": "Point", "coordinates": [ -73.738199999930032, 40.62809999981522, 0.0 ] } },
{ "type": "Feature", "properties": { "OBJECTID": null, "OID_": null, "Name": null, "Type": "Petroleum Product Terminal", "Site_Name": "INWOOD", "Operator": "CARBO INDUSTRIES INC" }, "geometry": { "type": "Point", "coordinates": [ -73.746599999690204, 40.627399999910097, 0.0 ] } },
{ "type": "Feature", "properties": { "OBJECTID": null, "OID_": null, "Name": null, "Type": "Petroleum Product Terminal", "Site_Name": "SAVONA", "Operator": "CRESTWOOD MIDSTREAM PARTNERS LP" }, "geometry": { "type": "Point", "coordinates": [ -77.259199999979955, 42.304999999550375, 0.0 ] } },
{ "type": "Feature", "properties": { "OBJECTID": null, "OID_": null, "Name": null, "Type": "Petroleum Product Terminal", "Site_Name": "THE ENERGY CONSRV GROUP LLC", "Operator": "THE ENERGY CONSRV GROUP LLC" }, "geometry": { "type": "Point", "coordinates": [ -73.848299999645235, 40.778600000089966, 0.0 ] } },
{ "type": "Feature", "properties": { "OBJECTID": null, "OID_": null, "Name": null, "Type": "Petroleum Product Terminal", "Site_Name": "BUFFALO", "Operator": "SUNOCO LOGISTICS" }, "geometry": { "type": "Point", "coordinates": [ -78.932600000189836, 42.976699999805192, 0.0 ] } },
{ "type": "Feature", "properties": { "OBJECTID": null, "OID_": null, "Name": null, "Type": "Petroleum Product Terminal", "Site_Name": "ROCHESTER", "Operator": "SUNOCO LOGISTICS" }, "geometry": { "type": "Point", "coordinates": [ -77.675400000709431, 43.164700000005041, 0.0 ] } },
{ "type": "Feature", "properties": { "OBJECTID": null, "OID_": null, "Name": null, "Type": "Petroleum Product Terminal", "Site_Name": "SYRACUSE IN WARNERS", "Operator": "SUNOCO LOGISTICS" }, "geometry": { "type": "Point", "coordinates": [ -76.30400000039964, 43.096399999760251, 0.0 ] } },
{ "type": "Feature", "properties": { "OBJECTID": null, "OID_": null, "Name": null, "Type": "Petroleum Product Terminal", "Site_Name": "HARFORD MILLS", "Operator": "ENTERPRISE TE PRODUCTS PIPELINE COMP" }, "geometry": { "type": "Point", "coordinates": [ -76.202000000099872, 42.422100000114938, 0.0 ] } },
{ "type": "Feature", "properties": { "OBJECTID": null, "OID_": null, "Name": null, "Type": "Petroleum Product Terminal", "Site_Name": "WATKINS GLEN", "Operator": "ENTERPRISE TE PRODUCTS PIPELINE" }, "geometry": { "type": "Point", "coordinates": [ -76.949000000549574, 42.377199999780203, 0.0 ] } },
{ "type": "Feature", "properties": { "OBJECTID": null, "OID_": null, "Name": null, "Type": "Petroleum Product Terminal", "Site_Name": "ONEONTA", "Operator": "ENTERPRISE TE PRODUCTS PIPELINE COMP" }, "geometry": { "type": "Point", "coordinates": [ -75.098299999845096, 42.489400000109981, 0.0 ] } },
{ "type": "Feature", "properties": { "OBJECTID": null, "OID_": null, "Name": null, "Type": "Petroleum Product Terminal", "Site_Name": "SELKIRK", "Operator": "ENTERPRISE TE PRODUCTS PIPELINE COMP" }, "geometry": { "type": "Point", "coordinates": [ -73.791799999470356, 42.527900000284831, 0.0 ] } },
{ "type": "Feature", "properties": { "OBJECTID": null, "OID_": null, "Name": null, "Type": "Petroleum Product Terminal", "Site_Name": "F M SCHILDWACHTER & SONS", "Operator": "FRED M SCHILDWACHTER & SONS" }, "geometry": { "type": "Point", "coordinates": [ -73.841099999465371, 40.839099999465475, 0.0 ] } },
{ "type": "Feature", "properties": { "OBJECTID": null, "OID_": null, "Name": null, "Type": "Petroleum Product Terminal", "Site_Name": "ALBANY", "Operator": "GLOBAL COMPANIES LLC" }, "geometry": { "type": "Point", "coordinates": [ -73.752400000059936, 42.642299999545401, 0.0 ] } },
{ "type": "Feature", "properties": { "OBJECTID": null, "OID_": null, "Name": null, "Type": "Petroleum Product Terminal", "Site_Name": "OYSTER BAY", "Operator": "GLOBAL CO LLC" }, "geometry": { "type": "Point", "coordinates": [ -73.52680000071939, 40.874699999905147, 0.0 ] } },
{ "type": "Feature", "properties": { "OBJECTID": null, "OID_": null, "Name": null, "Type": "Petroleum Product Terminal", "Site_Name": "NEWBURGH", "Operator": "GLOBAL COMPANIES LLC" }, "geometry": { "type": "Point", "coordinates": [ -74.010100000314708, 41.486399999560376, 0.0 ] } },
{ "type": "Feature", "properties": { "OBJECTID": null, "OID_": null, "Name": null, "Type": "Petroleum Product Terminal", "Site_Name": "GLENNWOOD LANDING", "Operator": "GLOBAL COMPANIES LLC" }, "geometry": { "type": "Point", "coordinates": [ -73.647700000254758, 40.828900000334784, 0.0 ] } },
{ "type": "Feature", "properties": { "OBJECTID": null, "OID_": null, "Name": null, "Type": "Petroleum Product Terminal", "Site_Name": "INWOOD", "Operator": "GLOBAL COMPANIES LLC" }, "geometry": { "type": "Point", "coordinates": [ -73.746599999690204, 40.625699999755227, 0.0 ] } },
{ "type": "Feature", "properties": { "OBJECTID": null, "OID_": null, "Name": null, "Type": "Petroleum Product Terminal", "Site_Name": "CARGO NEWBURGH", "Operator": "GLOBAL CO LLC" }, "geometry": { "type": "Point", "coordinates": [ -74.01420000052957, 41.47479999972029, 0.0 ] } },
{ "type": "Feature", "properties": { "OBJECTID": null, "OID_": null, "Name": null, "Type": "Petroleum Product Terminal", "Site_Name": "SOUTH NEWBURGH", "Operator": "GLOBAL CO LLC" }, "geometry": { "type": "Point", "coordinates": [ -74.013200000279767, 41.480600000089964, 0.0 ] } },
{ "type": "Feature", "properties": { "OBJECTID": null, "OID_": null, "Name": null, "Type": "Petroleum Product Terminal", "Site_Name": "NORTH NEWBURGH", "Operator": "GLOBAL CO LLC" }, "geometry": { "type": "Point", "coordinates": [ -74.011499999225521, 41.483700000055023, 0.0 ] } },
{ "type": "Feature", "properties": { "OBJECTID": null, "OID_": null, "Name": null, "Type": "Petroleum Product Terminal", "Site_Name": "ERIE BLVD", "Operator": "GLOBAL COMPANIES LLC" }, "geometry": { "type": "Point", "coordinates": [ -73.754200000329718, 42.630899999935082, 0.0 ] } },
{ "type": "Feature", "properties": { "OBJECTID": null, "OID_": null, "Name": null, "Type": "Petroleum Product Terminal", "Site_Name": "RENSSELAER", "Operator": "IPT LLC" }, "geometry": { "type": "Point", "coordinates": [ -73.742200000029925, 42.643800000369765, 0.0 ] } },
{ "type": "Feature", "properties": { "OBJECTID": null, "OID_": null, "Name": null, "Type": "Petroleum Product Terminal", "Site_Name": "STATEN ISLAND", "Operator": "KINDER MORGAN LIQ TERMLS LLC" }, "geometry": { "type": "Point", "coordinates": [ -74.239799999870058, 40.545500000224877, 0.0 ] } },
{ "type": "Feature", "properties": { "OBJECTID": null, "OID_": null, "Name": null, "Type": "Petroleum Product Terminal", "Site_Name": "BROOKLYN BLENDING TERMINAL", "Operator": "ARC TERMINALS HOLDING CO LLC" }, "geometry": { "type": "Point", "coordinates": [ -73.951599999640223, 40.737100000065027, 0.0 ] } },
{ "type": "Feature", "properties": { "OBJECTID": null, "OID_": null, "Name": null, "Type": "Petroleum Product Terminal", "Site_Name": "LONG ISLAND BLENDING TERMINAL", "Operator": "MOTIVA ENTERPRISES LLC" }, "geometry": { "type": "Point", "coordinates": [ -73.742600000489574, 40.634499999975048, 0.0 ] } },
{ "type": "Feature", "properties": { "OBJECTID": null, "OID_": null, "Name": null, "Type": "Petroleum Product Terminal", "Site_Name": "KINGSTON POINT TERMINAL", "Operator": "HERITAGENERGY INC" }, "geometry": { "type": "Point", "coordinates": [ -73.964299999845082, 41.928400000259842, 0.0 ] } },
{ "type": "Feature", "properties": { "OBJECTID": null, "OID_": null, "Name": null, "Type": "Petroleum Product Terminal", "Site_Name": "TONAWANDA ASPHALT", "Operator": "SUIT-KOTE CORP" }, "geometry": { "type": "Point", "coordinates": [ -78.93789999998495, 42.989099999665314, 0.0 ] } },
{ "type": "Feature", "properties": { "OBJECTID": null, "OID_": null, "Name": null, "Type": "Petroleum Product Terminal", "Site_Name": "NORTH HOLTSVILLE TERMINAL", "Operator": "NIC HOLDING CORP" }, "geometry": { "type": "Point", "coordinates": [ -73.066299999445391, 40.81339999961034, 0.0 ] } },
{ "type": "Feature", "properties": { "OBJECTID": null, "OID_": null, "Name": null, "Type": "Petroleum Product Terminal", "Site_Name": "EAST SETAUKET", "Operator": "NORTHVILLE INDUSTRIES CORP" }, "geometry": { "type": "Point", "coordinates": [ -73.093700000354715, 40.916300000044998, 0.0 ] } },
{ "type": "Feature", "properties": { "OBJECTID": null, "OID_": null, "Name": null, "Type": "Petroleum Product Terminal", "Site_Name": "VESTAL", "Operator": "CITGO PETROLEUM CORP" }, "geometry": { "type": "Point", "coordinates": [ -75.997500000724415, 42.103199999680271, 0.0 ] } },
{ "type": "Feature", "properties": { "OBJECTID": null, "OID_": null, "Name": null, "Type": "Petroleum Product Terminal", "Site_Name": "ALBANY", "Operator": "CITGO HOLDING TERMINALS LLC" }, "geometry": { "type": "Point", "coordinates": [ -73.766500000074927, 42.585999999600347, 0.0 ] } },
{ "type": "Feature", "properties": { "OBJECTID": null, "OID_": null, "Name": null, "Type": "Petroleum Product Terminal", "Site_Name": "NOCO ENERGY CORP", "Operator": "NOCO ENERGY CORP" }, "geometry": { "type": "Point", "coordinates": [ -78.925099999665235, 42.991999999400491, 0.0 ] } },
{ "type": "Feature", "properties": { "OBJECTID": null, "OID_": null, "Name": null, "Type": "Petroleum Product Terminal", "Site_Name": "CORTLAND MANOR", "Operator": "MEENAN OIL LP" }, "geometry": { "type": "Point", "coordinates": [ -73.945500000724394, 41.297900000584605, 0.0 ] } },
{ "type": "Feature", "properties": { "OBJECTID": null, "OID_": null, "Name": null, "Type": "Petroleum Product Terminal", "Site_Name": "POUGHKEEPSIE", "Operator": "MEENAN OIL LP" }, "geometry": { "type": "Point", "coordinates": [ -73.936400000159836, 41.687699999755239, 0.0 ] } },
{ "type": "Feature", "properties": { "OBJECTID": null, "OID_": null, "Name": null, "Type": "Petroleum Product Terminal", "Site_Name": "MARCY", "Operator": "SUPERIOR PLUS ENERGY SVCS INC" }, "geometry": { "type": "Point", "coordinates": [ -75.246299999944995, 43.129600000139931, 0.0 ] } },
{ "type": "Feature", "properties": { "OBJECTID": null, "OID_": null, "Name": null, "Type": "Petroleum Product Terminal", "Site_Name": "BIG FLATS", "Operator": "SUPERIOR PLUS ENERGY SVCS INC" }, "geometry": { "type": "Point", "coordinates": [ -76.960500000274749, 42.128799999420494, 0.0 ] } },
{ "type": "Feature", "properties": { "OBJECTID": null, "OID_": null, "Name": null, "Type": "Petroleum Product Terminal", "Site_Name": "ROCHESTER", "Operator": "SUPERIOR PLUS ENERGY SVCS INC" }, "geometry": { "type": "Point", "coordinates": [ -77.667699999955005, 43.151400000010028, 0.0 ] } },
{ "type": "Feature", "properties": { "OBJECTID": null, "OID_": null, "Name": null, "Type": "Petroleum Product Terminal", "Site_Name": "BROOKLYN BLENDING TERMINAL NY", "Operator": "UNITED METRO ENERGY CORP" }, "geometry": { "type": "Point", "coordinates": [ -73.942999999650226, 40.733699999755231, 0.0 ] } },
{ "type": "Feature", "properties": { "OBJECTID": null, "OID_": null, "Name": null, "Type": "Petroleum Product Terminal", "Site_Name": "TONAWANDA", "Operator": "UNITED REFINING CO" }, "geometry": { "type": "Point", "coordinates": [ -78.930100000014932, 42.99810000011496, 0.0 ] } },
{ "type": "Feature", "properties": { "OBJECTID": null, "OID_": null, "Name": null, "Type": "Petroleum Product Terminal", "Site_Name": "ROCHESTER", "Operator": "UNITED REFINING CO" }, "geometry": { "type": "Point", "coordinates": [ -77.665000000449595, 43.140500000075008, 0.0 ] } },
{ "type": "Feature", "properties": { "OBJECTID": null, "OID_": null, "Name": null, "Type": "Petroleum Product Terminal", "Site_Name": "RIVERHEAD", "Operator": "UNITED REFINING CO" }, "geometry": { "type": "Point", "coordinates": [ -72.646899999535322, 40.978399999460464, 0.0 ] } },
{ "type": "Feature", "properties": { "OBJECTID": null, "OID_": null, "Name": null, "Type": "Petroleum Product Terminal", "Site_Name": "WESTMORE FUELS", "Operator": "WESTMORE FUELS" }, "geometry": { "type": "Point", "coordinates": [ -73.660199999330473, 40.99569999955537, 0.0 ] } },
{ "type": "Feature", "properties": { "OBJECTID": null, "OID_": null, "Name": null, "Type": "Petroleum Product Terminal", "Site_Name": "GATES", "Operator": "CENTER POINT TERMINAL LLC" }, "geometry": { "type": "Point", "coordinates": [ -77.678199999430376, 43.164700000005041, 0.0 ] } },
{ "type": "Feature", "properties": { "OBJECTID": null, "OID_": null, "Name": null, "Type": "Petroleum Product Terminal", "Site_Name": "GLENMONT", "Operator": "CENTER POINT TERMINAL LLC" }, "geometry": { "type": "Point", "coordinates": [ -73.769100000364688, 42.607600000139939, 0.0 ] } }
]
}
